[
  {
    "Name": "Guy's Seafood Bar Clifden",
    "Address": "Main St, Clifden, Co. Galway, H71 Y277, Ireland",
    "ZipCode": "H71 Y277",
    "Type": "Gastropub",
    "OutDoorOnly": false,
    "Info": "fish and chips, guinness, mussels, oysters, prawns, stew, seafood chowder, tempura, brown bread, skillet",
    "Link": "http://www.guysbarclifden.com/",
    "State": "Co. Galway",
    "Latitude": 53.488523,
    "Longitude": -10.0222411,
    "Phone": "+353 95 21130",
    "Rating": 4.7,
    "GooglePlaceId": "ChIJ877anVI7WkgRlIDs9DwpffE",
    "Hours": {
      "Mon-Fri": "12:00 - 23:00",
      "Sat": "12:00 - 23:30",
      "Sun": "12:30 - 23:00"
    },
    "Inside": true,
    "Outside": true
  },
  {
    "Name": "Buoys & Gulls",
    "Address": "Ocean View, W End, Magheracar, Bundoran, Co. Donegal, F94 E6HD, Ireland",
    "ZipCode": "F94 E6HD",
    "Type": "Coffee store",
    "OutDoorOnly": false,
    "Info": "dog, toastie, atmosphere, cappuccino, surfers, beautiful, smoothie, arts and crafts, interior, vegan",
    "Link": "http://buoysandgulls.ie/",
    "State": "Co. Donegal",
    "Latitude": 54.476757,
    "Longitude": -8.2849636,
    "Phone": "+353 87 949 1603",
    "Rating": 4.7,
    "GooglePlaceId": "ChIJmeuvwJn9XkgRSMGxhOcBleM",
    "Hours": {
      "Mon-Sun": "08:00 - 16:00"
    }
  },
  {
    "Name": "Dock84",
    "Address": "The Mill Building, Finisklin Rd, Rathedmond, Sligo, Ireland",
    "ZipCode": null,
    "Type": "Brunch restaurant",
    "OutDoorOnly": true,
    "Info": "prices, atmosphere, parking, shakshuka, cafe, qr code, waffles, vegan, cappuccino, potatoes",
    "Link": "http://www.dock84sligo.wi-q.com/",
    "State": null,
    "Latitude": 54.2739181,
    "Longitude": -8.4812421,
    "Phone": "+353 86 440 5538",
    "Rating": 4.3,
    "GooglePlaceId": "ChIJBxGfZVzpXkgRR0QqveBPYZg",
    "Hours": {
      "Mon": "10:00 - 15:30",
      "Tue-Fri": "09:00 - 16:00",
      "Sat-Sun": "10:00 - 15:30"
    },
    "Outside": true
  },
  {
    "Name": "Orchard Bar Bistro",
    "Address": "Dristernan, Gleneely, Co. Donegal, Ireland",
    "ZipCode": null,
    "Type": "Restaurant",
    "OutDoorOnly": false,
    "Info": "craic, atmosphere, pub, dog, guinness",
    "Link": null,
    "State": "Co. Donegal",
    "Latitude": 55.2417488,
    "Longitude": -7.1494491,
    "Phone": null,
    "Rating": 4.8,
    "GooglePlaceId": "ChIJGfK0llUCYEgR_ofRqbM7xX4",
    "Hours": {
      "Mon-Sun": "00:00 - 23:59"
    }
  },
  {
    "Name": "Nancy's Barn Ballyliffin",
    "Address": "Main St, Ballyliffin, Clonmany, Co. Donegal, Ireland",
    "ZipCode": null,
    "Type": "Restaurant",
    "OutDoorOnly": false,
    "Info": "chowder, breakfast, atmosphere, guinness, parking, seafood soup, brie, scone, reputation, chorizo",
    "Link": "http://www.nancysbarn.ie/",
    "State": "Co. Donegal",
    "Latitude": 55.28078,
    "Longitude": -7.391788,
    "Phone": "+353 74 937 6556",
    "Rating": 4.7,
    "GooglePlaceId": "ChIJAfgI8nBV9UgRPKxejpB510M",
    "Hours": {
      "Mon-Thu": "09:00 - 17:00",
      "Fri-Sat": "09:00 - 22:30",
      "Sun": "09:00 - 17:00"
    }
  },
  {
    "Name": "Hayes' Bar & Kitchen",
    "Address": "Hayes' Bar and Restaurant, Rushanes, Glandore, Co. Cork, P81 WE16, Ireland",
    "ZipCode": "P81 WE16",
    "Type": "Bar",
    "OutDoorOnly": false,
    "Info": "menu, atmosphere, meal, mussels, price, weather, dessert, seafood pasta, fish pie, toilets",
    "Link": "https://hayesrestaurant.ie/",
    "State": "Co. Cork",
    "Latitude": 51.5652664,
    "Longitude": -9.1179768,
    "Phone": "+353 28 33214",
    "Rating": 4.5,
    "GooglePlaceId": "ChIJBZ25ZxesRUgRvliW2hrS_Pc",
    "Hours": {
      "Mon-Sun": "12:30 - 21:00"
    }
  },
  {
    "Name": "Scannells Bar",
    "Address": "5 Connolly Street, Youghals, Clonakilty, Co. Cork, P85 FE48, Ireland",
    "ZipCode": "P85 FE48",
    "Type": "Gastropub",
    "OutDoorOnly": true,
    "Info": "lunch, beer garden, chowder, guinness, atmosphere, prices, evening, salad, craic, filet mignon sandwich",
    "Link": "http://scannells.ie/",
    "State": "Co. Cork",
    "Latitude": 51.6220432,
    "Longitude": -8.8887605,
    "Phone": null,
    "Rating": 4.8,
    "GooglePlaceId": "ChIJjeq0LuhWREgRhEvSZr5RVyc",
    "Hours": {
      "Mon": "16:00 - 21:00",
      "Tue-Thu": "12:00 - 23:30",
      "Fri-Sat": "12:00 - 00:30",
      "Sun": "14:00 - 23:00"
    },
    "Outside": true
  },
  {
    "Name": "Blackbird Bar, Ballycotton",
    "Address": "Main St, Ballycotton, Co. Cork, P25 D580, Ireland",
    "ZipCode": "P25 D580",
    "Type": "Bar",
    "OutDoorOnly": false,
    "Info": "atmosphere, fish and chips, beer garden, live music, area, craic, seafood, party, guinness, evening",
    "Link": "http://www.blackbirdballycotton.com/",
    "State": "Co. Cork",
    "Latitude": 51.830595,
    "Longitude": -8.0137496,
    "Phone": "+353 86 850 2383",
    "Rating": 4.7,
    "GooglePlaceId": "ChIJ_Xo0Qfp5Q0gRcCGpXd_ghrQ",
    "Hours": {
      "Mon": "13:00 - 23:30",
      "Tue-Wed": "17:00 - 23:30",
      "Thu": "16:30 - 23:30",
      "Fri": "16:30 - 00:30",
      "Sat": "13:00 - 00:30",
      "Sun": "13:00 - 23:30"
    }
  },
  {
    "Name": "Rottie's cafe",
    "Address": "25 Main St, Townparks, Midleton, Co. Cork, P25 DH73, Ireland",
    "ZipCode": "P25 DH73",
    "Type": "Cafe",
    "OutDoorOnly": false,
    "Info": "dog, atmosphere, choice, service",
    "Link": null,
    "State": "Co. Cork",
    "Latitude": 51.9148975,
    "Longitude": -8.1731158,
    "Phone": null,
    "Rating": 5,
    "GooglePlaceId": "ChIJqaYW7xZjQ0gRtTibW4r_18I",
    "Hours": {
      "Mon": "10:00 - 17:00",
      "Tue-Sat": "08:00 - 17:30",
      "Sun": "10:00 - 17:00"
    },
    "Inside": true,
    "Outside": true
  },
  {
    "Name": "That's My Brew",
    "Address": "Mulhaire House, Main street, Mountshannon, Co. Clare, V94 C9TX, Ireland",
    "ZipCode": "V94 C9TX",
    "Type": "Coffee shop",
    "OutDoorOnly": true,
    "Info": "village, croissant, gift shop, beans, stars, smoothies, brownie, camping, garden, skincare",
    "Link": "http://www.thatsmybrew.com/",
    "State": "Co. Clare",
    "Latitude": 52.9317106,
    "Longitude": -8.4290107,
    "Phone": "+353 61 927 937",
    "Rating": 4.7,
    "GooglePlaceId": "ChIJK93LlliFXEgRMLX3O1K4HBE",
    "Hours": {
      "Mon-Fri": "07:30 - 15:30",
      "Sat-Sun": "09:00 - 16:30"
    },
    "Outside": true
  },
  {
    "Name": "Ahoy Cafe",
    "Address": "Shore Rd, Killybegs, Co. Donegal, F94 V322, Ireland",
    "ZipCode": "F94 V322",
    "Type": "Restaurant",
    "OutDoorOnly": false,
    "Info": "breakfast, scones, harbour, fish and chips, chowder, eggs benedict, calamari, haddock, crab, garden",
    "Link": "http://www.facebook.com/ahoycafekillybegs",
    "State": "Co. Donegal",
    "Latitude": 54.6335342,
    "Longitude": -8.4460946,
    "Phone": "+353 74 973 1952",
    "Rating": 4.7,
    "GooglePlaceId": "ChIJPdQwzVsaX0gRMoWyb69koAI",
    "Hours": {
      "Mon-Sat": "09:30 - 17:00",
      "Sun": "Closed"
    }
  },
  {
    "Name": "Hot Shot coffee",
    "Address": "Main St, Townparks, Daingean, Co. Offaly, R35 T181, Ireland",
    "ZipCode": "R35 T181",
    "Type": "Coffee shop",
    "OutDoorOnly": false,
    "Info": "dog",
    "Link": null,
    "State": "Co. Offaly",
    "Latitude": 53.2947251,
    "Longitude": -7.2929469,
    "Phone": null,
    "Rating": 4.9,
    "GooglePlaceId": "ChIJZS6MpISjXUgRe-TCjRfJOWA",
    "Hours": {
      "Mon-Fri": "07:00 - 16:00",
      "Sat-Sun": "08:00 - 15:00"
    }
  },
  {
    "Name": "Larkins",
    "Address": "Garrykennedy, Portroe, Co. Tipperary, E45 W729, Ireland",
    "ZipCode": "E45 W729",
    "Type": "Restaurant",
    "OutDoorOnly": false,
    "Info": "pub, guinness, lake, beer garden, chowder, village, traditional irish music, traditional music, harbour, sunday lunch",
    "Link": "http://www.larkins.ie/",
    "State": "Co. Tipperary",
    "Latitude": 52.9045858,
    "Longitude": -8.3458468,
    "Phone": "+353 67 23232",
    "Rating": 4.6,
    "GooglePlaceId": "ChIJ9dZw8sGaXEgR-FOtl6-tA9M",
    "Hours": {
      "Mon-Thu": "12:00 - 23:30",
      "Fri-Sat": "12:00 - 00:30",
      "Sun": "12:00 - 23:30"
    }
  },
  {
    "Name": "Blackpool Park",
    "Address": "Blackpool, Cork, Ireland",
    "ZipCode": null,
    "Type": "Park",
    "OutDoorOnly": false,
    "Info": "",
    "Link": null,
    "State": null,
    "Latitude": 51.9170323,
    "Longitude": -8.4731704,
    "Phone": null,
    "Rating": 5,
    "GooglePlaceId": "ChIJ8yJUkS-RREgRZXGfDGikEgI",
    "Hours": {
      "Mon-Sun": "09:00 - 18:00"
    }
  },
  {
    "Name": "Copper Coast Cafe",
    "Address": "Visitor Centre, Copper Coast UNESCO Global Geopark, Bunmahon, Co. Waterford, X42 T923, Ireland",
    "ZipCode": "X42 T923",
    "Type": "Coffee shop",
    "OutDoorOnly": false,
    "Info": "soup, dog, chat, lunch, baking, church, scones, gluten, atmosphere",
    "Link": "https://coppercoastgeopark.com/copper-coast-cafe/",
    "State": "Co. Waterford",
    "Latitude": 52.1425019,
    "Longitude": -7.3650404,
    "Phone": "+353 87 192 5360",
    "Rating": 5,
    "GooglePlaceId": "ChIJw1beO5LfQkgRy0wYerFeSdQ",
    "Hours": {
      "Mon": "09:30 - 16:00",
      "Tue-Wed": "Closed",
      "Thu-Sun": "09:30 - 16:00"
    }
  },
  {
    "Name": "Stir It Coffee",
    "Address": "Kilcoolishal, Glanmire, Co. Cork, T45 K262, Ireland",
    "ZipCode": "T45 K262",
    "Type": "Coffee shop",
    "OutDoorOnly": false,
    "Info": "scone, cake, atmosphere, prices, sausage rolls, lunch, walking, takeaway, great spot, gluten free",
    "Link": "https://www.facebook.com/StirItCoffee",
    "State": "Co. Cork",
    "Latitude": 51.9076496,
    "Longitude": -8.3636158,
    "Phone": null,
    "Rating": 4.6,
    "GooglePlaceId": "ChIJ-Ysf_MWbREgRc-8N2Bxfp2E",
    "Hours": {
      "Mon-Fri": "07:00 - 20:00",
      "Sat-Sun": "08:00 - 20:00"
    },
    "Inside": true,
    "Outside": true
  },
  {
    "Name": "Coffee Corner Cafe",
    "Address": "Eastgate Ave, Castleview, Little Island, Co. Cork, Ireland",
    "ZipCode": null,
    "Type": "Cafe",
    "OutDoorOnly": false,
    "Info": "price, salad, wrap, choice, cake, scones, ciabatta, quiche, roll, bacon",
    "Link": null,
    "State": "Co. Cork",
    "Latitude": 51.9034074,
    "Longitude": -8.3595988,
    "Phone": "+353 21 452 4678",
    "Rating": 4.2,
    "GooglePlaceId": "ChIJu8HbPFCbREgRzwNOZProU6U",
    "Hours": {
      "Mon-Fri": "07:30 - 17:30",
      "Sat": "09:00 - 18:00",
      "Sun": "10:00 - 18:00"
    },
    "Inside": true,
    "Outside": true
  },
  {
    "Name": "Swim Club Deli, The Little Island Resort",
    "Address": "Little-Island, Castlefreke, Co. Cork, P85 H243, Ireland",
    "ZipCode": "P85 H243",
    "Type": "Pizza restaurant",
    "OutDoorOnly": false,
    "Info": "luck, cookies, topping, cocktails, beach, car park, advertising, the future, business, pepperoni",
    "Link": "https://swim-club-deli.square.site/",
    "State": "Co. Cork",
    "Latitude": 51.5642517,
    "Longitude": -8.9879825,
    "Phone": null,
    "Rating": 4.1,
    "GooglePlaceId": "ChIJO4WxX55TREgRScY4Pvxkhbo",
    "Hours": {},
    "Inside": true,
    "Outside": true
  },
  {
    "Name": "Chill - Ices & Slices",
    "Address": "90 N Main St, Youghal-Lands, Youghal, Co. Cork, P36 RP79, Ireland",
    "ZipCode": "P36 RP79",
    "Type": "Cafe",
    "OutDoorOnly": true,
    "Info": "pizza, snacks, selection, croissant, chat, attention, price",
    "Link": "https://www.facebook.com/p/Chill-Ices-Slices-61563748707022/",
    "State": "Co. Cork",
    "Latitude": 51.9529326,
    "Longitude": -7.8469153,
    "Phone": "+353 87 331 9310",
    "Rating": 4.6,
    "GooglePlaceId": "ChIJj1h4OihtQ0gREr2wZX9RjsM",
    "Hours": {
      "Mon-Thu": "09:30 - 19:00",
      "Fri-Sat": "09:30 - 22:00",
      "Sun": "09:30 - 20:00"
    },
    "Outside": true
  },
  {
    "Name": "360 Cookhouse",
    "Address": "Castle St, Dungarvan, Co. Waterford, X35 E192, Ireland",
    "ZipCode": "X35 E192",
    "Type": "Restaurant",
    "OutDoorOnly": true,
    "Info": "dog, cocktails, pizza, evening, food and service, tapas, calamari, vegan, sunday lunch, patatas bravas",
    "Link": "http://www.360cookhouse.ie/",
    "State": "Co. Waterford",
    "Latitude": 52.0889797,
    "Longitude": -7.6172589,
    "Phone": "+353 58 44537",
    "Rating": 4.6,
    "GooglePlaceId": "ChIJd7djVCEYQ0gRKCRgtG8g_Zw",
    "Hours": {
      "Mon": "13:00 - 20:00",
      "Tue": "Closed",
      "Wed-Thu": "16:00 - 20:30",
      "Fri": "16:00 - 21:30",
      "Sat": "14:00 - 21:30",
      "Sun": "13:00 - 21:00"
    },
    "Outside": true
  },
  {
    "Name": "Murmont Park",
    "Address": "2A Murmont Cres, Montenotte, Cork, T23 E3X0, Ireland",
    "ZipCode": "T23 E3X0",
    "Type": "Park",
    "OutDoorOnly": false,
    "Info": "",
    "Link": null,
    "State": null,
    "Latitude": 51.9105129,
    "Longitude": -8.4420345,
    "Phone": null,
    "Rating": 5,
    "GooglePlaceId": "ChIJxT1QyiybREgRKLmxb8nf6zk",
    "Hours": {}
  },
  {
    "Name": "Street Dog",
    "Address": "4 Cross Street Upper, Galway, H91 C6X2, Ireland",
    "ZipCode": "H91 C6X2",
    "Type": "Fast food restaurant",
    "OutDoorOnly": false,
    "Info": "hot dog, money, price",
    "Link": null,
    "State": null,
    "Latitude": 53.271765,
    "Longitude": -9.0542097,
    "Phone": null,
    "Rating": 4.3,
    "GooglePlaceId": "ChIJOeMFaQCXW0gRx7LEfNpVi5U",
    "Hours": {}
  },
  {
    "Name": "Kennedys bar",
    "Address": "Main St, Killeagh Gardens, Killeagh, Co. Cork, P36 AX95, Ireland",
    "ZipCode": "P36 AX95",
    "Type": "Bar",
    "OutDoorOnly": false,
    "Info": "beer garden, room, dog",
    "Link": "https://www.facebook.com/Kennedysbarkilleagh/",
    "State": "Co. Cork",
    "Latitude": 51.9414253,
    "Longitude": -7.9935703,
    "Phone": "+353 86 837 2999",
    "Rating": 4.8,
    "GooglePlaceId": "ChIJv7j53N5vQ0gRxpjq_RASozg",
    "Hours": {
      "Mon-Sun": "12:00 - 23:30"
    }
  },
  {
    "Name": "The Black Dog",
    "Address": "53 N Main St, Centre, Cork, T12 AE13, Ireland",
    "ZipCode": "T12 AE13",
    "Type": "Cocktail bar",
    "OutDoorOnly": false,
    "Info": "atmosphere, tacos, pub, price, birria, alternative, DJ, whiskey, area, table",
    "Link": "https://www.instagram.com/blackdogcork/?hl=en",
    "State": null,
    "Latitude": 51.8987288,
    "Longitude": -8.4773823,
    "Phone": "+353 21 239 3371",
    "Rating": 4.4,
    "GooglePlaceId": "ChIJUROf0RCQREgRMRzrpMBJEcI",
    "Hours": {
      "Mon-Tue": "Closed",
      "Wed": "16:00 - 23:30",
      "Thu": "16:00 - 00:00",
      "Fri": "16:00 - 02:30",
      "Sat": "15:00 - 02:30",
      "Sun": "15:00 - 00:00"
    }
  },
  {
    "Name": "Placebo Cafe",
    "Address": "140 Hazel Park, Newcastle, Galway, H91 FA55, Ireland",
    "ZipCode": "H91 FA55",
    "Type": "Coffee shop",
    "OutDoorOnly": false,
    "Info": "dog, music, atmosphere, cookies, protein balls, latte, residential area, cappuccino, walking",
    "Link": "https://instagram.com/placebocafe?igshid=MWZjMTM2ODFkZg==",
    "State": null,
    "Latitude": 53.2859956,
    "Longitude": -9.0758066,
    "Phone": null,
    "Rating": 4.9,
    "GooglePlaceId": "ChIJq3gmEZWXW0gRPNOu9jTsBiA",
    "Hours": {
      "Mon-Tue": "09:00 - 16:00",
      "Wed-Fri": "08:00 - 16:00",
      "Sat": "09:00 - 16:00",
      "Sun": "10:00 - 16:00"
    }
  },
  {
    "Name": "Taylor's Bar & Beer Garden",
    "Address": "s Westend, 7 Dominick St Upper, Galway, H91 RP48, Ireland",
    "ZipCode": "H91 RP48",
    "Type": "Bar",
    "OutDoorOnly": false,
    "Info": "atmosphere, cocktails, live music, guinness, whiskey, great spot, dog, party, craic, screens",
    "Link": "http://taylorsgalway.ie/",
    "State": null,
    "Latitude": 53.2701587,
    "Longitude": -9.0583473,
    "Phone": "+353 91 450 475",
    "Rating": 4.6,
    "GooglePlaceId": "ChIJF6n1XE6XW0gRI6yQyallGuU",
    "Hours": {
      "Mon-Tue": "17:00 - 23:30",
      "Wed-Thu": "17:00 - 02:00",
      "Fri": "15:00 - 02:00",
      "Sat-Sun": "12:30 - 02:00"
    }
  },
  {
    "Name": "Sugrues On The Square",
    "Address": "The Square, Knockaneroe, Castletown-Bearhaven, Co. Cork, P75 HX47, Ireland",
    "ZipCode": "P75 HX47",
    "Type": "Restaurant",
    "OutDoorOnly": false,
    "Info": "coffee, dog, calamari, lunch, soup, irish breakfast, crab sandwich, monkfish, prawn cocktail, platter",
    "Link": null,
    "State": "Co. Cork",
    "Latitude": 51.6509959,
    "Longitude": -9.9106002,
    "Phone": "+353 83 006 0815",
    "Rating": 4.5,
    "GooglePlaceId": "ChIJ1--yLj1_RUgRceGuUhyW9FQ",
    "Hours": {
      "Mon": "09:30 - 16:00",
      "Tue-Thu": "09:00 - 16:00",
      "Fri": "09:30 - 16:00",
      "Sat": "09:30 - 20:00",
      "Sun": "09:30 - 18:00"
    },
    "Inside": true,
    "Outside": true
  },
  {
    "Name": "Mikes Beach Shop and Cafe",
    "Address": "Fenit House, Main Rd, Fenit Without, Pier Gates, Co. Kerry, Ireland",
    "ZipCode": null,
    "Type": "Restaurant",
    "OutDoorOnly": true,
    "Info": "coffee, cakes, atmosphere, fish and chips, gluten free, chowder, vegetarian food, tuna, hot chocolate, brown bread",
    "Link": null,
    "State": "Co. Kerry",
    "Latitude": 52.2754195,
    "Longitude": -9.8643862,
    "Phone": null,
    "Rating": 4.6,
    "GooglePlaceId": "ChIJr8o038ZMRUgRvK38FydlhJM",
    "Hours": {
      "Mon": "09:00 - 21:00",
      "Tue-Sun": "09:00 - 20:30"
    },
    "Outside": true
  },
  {
    "Name": "The Bulman Bar & Restaurant Kinsale",
    "Address": "The Bulman Bar, Summercove, Kinsale, Co. Cork, Ireland",
    "ZipCode": null,
    "Type": "Irish pub",
    "OutDoorOnly": false,
    "Info": "mussels, walk, lobster, chowder, weather, sunset, harbour, calamari, great spot, crab",
    "Link": "https://www.thebulman.ie/",
    "State": "Co. Cork",
    "Latitude": 51.7000968,
    "Longitude": -8.4997161,
    "Phone": "+353 21 477 2131",
    "Rating": 4.7,
    "GooglePlaceId": "ChIJyXLRkRtiREgRE2GIOWSDQSk",
    "Hours": {
      "Mon-Tue": "16:00 - 23:30",
      "Wed-Thu": "12:30 - 23:30",
      "Fri-Sat": "12:30 - 00:30",
      "Sun": "12:30 - 23:00"
    },
    "Inside": true,
    "Outside": true
  },
  {
    "Name": "Thatch Coffee",
    "Address": "Strandside S, Abbeyside, Dungarvan, Co. Waterford, X35 RW98, Ireland",
    "ZipCode": "X35 RW98",
    "Type": "Coffee shop",
    "OutDoorOnly": false,
    "Info": "dog, atmosphere, cookies, child, gem, pizzas, garden, business, gluten free",
    "Link": "https://www.instagram.com/thatch_coffee/",
    "State": "Co. Waterford",
    "Latitude": 52.0884116,
    "Longitude": -7.6128919,
    "Phone": "+353 87 191 6942",
    "Rating": 4.9,
    "GooglePlaceId": "ChIJ6ROTpPUZQ0gRQ59tPIIPdyU",
    "Hours": {}
  },
  {
    "Name": "Kickham House",
    "Address": "50 Main St, Town Lot, Tipperary, E34 TA47, Ireland",
    "ZipCode": "E34 TA47",
    "Type": "Bar",
    "OutDoorOnly": false,
    "Info": "traditional music, guinness",
    "Link": "http://www.kickhamhouse.ie/",
    "State": null,
    "Latitude": 52.4737316,
    "Longitude": -8.1598701,
    "Phone": "+353 62 51716",
    "Rating": 4.7,
    "GooglePlaceId": "ChIJkbQVASizXEgRk81rasQnH3w",
    "Hours": {}
  },
  {
    "Name": "Chill The Beans Castletroy",
    "Address": "Unit 1, Groody Centre, Groody Rd, Castletroy, Limerick, V94 V2N3, Ireland",
    "ZipCode": "V94 V2N3",
    "Type": "Cafe",
    "OutDoorOnly": false,
    "Info": "atmosphere, acai bowls, customer service, queue, music",
    "Link": "https://www.instagram.com/chilldbeans",
    "State": null,
    "Latitude": 52.6638506,
    "Longitude": -8.5788223,
    "Phone": null,
    "Rating": 4.5,
    "GooglePlaceId": "ChIJjYTBhk9fW0gRikWwIH3czac",
    "Hours": {
      "Mon-Fri": "07:00 - 17:00",
      "Sat-Sun": "09:00 - 16:00"
    },
    "Inside": true,
    "Outside": true
  },
  {
    "Name": "The Yard",
    "Address": "Dublin Rd, Carrowkeel, Annacotty, Co. Limerick, V94 NH27, Ireland",
    "ZipCode": "V94 NH27",
    "Type": "Coffee shop",
    "OutDoorOnly": true,
    "Info": "acai bowls, dome, buzzer, system",
    "Link": "https://www.instagram.com/the_yardlimerick/",
    "State": "Co. Limerick",
    "Latitude": 52.6723719,
    "Longitude": -8.5176234,
    "Phone": null,
    "Rating": 4.2,
    "GooglePlaceId": "ChIJrQuzNwBfW0gR8Z8i9ncdOpU",
    "Hours": {
      "Mon-Sun": "08:00 - 17:00"
    },
    "Outside": true
  },
  {
    "Name": "Courtyard Cafe",
    "Address": "Rosse Row, Townparks, Birr, Co. Offaly, R42 V027, Ireland",
    "ZipCode": "R42 V027",
    "Type": "Restaurant",
    "OutDoorOnly": false,
    "Info": "coffee, atmosphere, dog",
    "Link": "https://birrcastle.com/visitor-information/",
    "State": "Co. Offaly",
    "Latitude": 53.0962226,
    "Longitude": -7.9139714,
    "Phone": "+353 57 912 0336",
    "Rating": 4.2,
    "GooglePlaceId": "ChIJA8Kb9pT3XEgRxHDZqZwxN6M",
    "Hours": {
      "Mon-Sun": "10:00 - 17:00"
    }
  },
  {
    "Name": "O’SHAUGHNESSY’S -THE IVY HOUSE",
    "Address": "Main St, Ballygiltenan North, Glin, Co. Limerick, Ireland",
    "ZipCode": null,
    "Type": "Irish pub",
    "OutDoorOnly": true,
    "Info": "guinness",
    "Link": null,
    "State": "Co. Limerick",
    "Latitude": 52.5698843,
    "Longitude": -9.2835553,
    "Phone": null,
    "Rating": 4.9,
    "GooglePlaceId": "ChIJOeSVF-YmW0gRB7xNKbocPoo",
    "Hours": {
      "Mon-Tue": "10:30 - 14:00",
      "Wed": "Closed",
      "Thu": "10:30 - 14:00",
      "Fri": "10:30 - 14:00, 17:30 - 22:30",
      "Sat": "10:30 - 23:30",
      "Sun": "12:30 - 15:00"
    }
  },
  {
    "Name": "Platform 22 Cafe",
    "Address": "Barnagh, Newcastle West, Co. Limerick, V42 AV66, Ireland",
    "ZipCode": "V42 AV66",
    "Type": "Coffee shop",
    "OutDoorOnly": false,
    "Info": "greenway, playground, cycling, bike rental, crazy golf, tunnel, toilets, county, walking, balcony",
    "Link": "http://www.barnaghgreenwayhub.ie/",
    "State": "Co. Limerick",
    "Latitude": 52.4195179,
    "Longitude": -9.1334266,
    "Phone": "+353 69 61512",
    "Rating": 4.6,
    "GooglePlaceId": "ChIJJ8U9OaEtW0gRDPjEEFY8zBQ",
    "Hours": {
      "Mon-Fri": "09:00 - 16:00",
      "Sat-Sun": "09:00 - 17:00"
    },
    "Inside": true,
    "Outside": true
  },
  {
    "Name": "Stritches Bar",
    "Address": "Stritches Bar, Cloonlara, Co. Clare, V94 C8H2, Ireland",
    "ZipCode": "V94 C8H2",
    "Type": "Pub",
    "OutDoorOnly": false,
    "Info": "atmosphere, guinness",
    "Link": null,
    "State": "Co. Clare",
    "Latitude": 52.7240226,
    "Longitude": -8.5528505,
    "Phone": null,
    "Rating": 4.6,
    "GooglePlaceId": "ChIJDbqeRwVfW0gRd_o45He3ttI",
    "Hours": {
      "Mon-Thu": "15:00 - 23:30",
      "Fri-Sat": "15:00 - 00:00",
      "Sun": "13:00 - 23:00"
    }
  },
  {
    "Name": "Cafe La Coco",
    "Address": "4 Lower Patrick St, Gardens, Kilkenny, R95 YV6X, Ireland",
    "ZipCode": "R95 YV6X",
    "Type": "Cafe",
    "OutDoorOnly": false,
    "Info": "scones, brunch, takeaway, avocado toast, chai latte, blueberry banana pancakes, breakfast sandwich, superfood salad, granola, blueberry pancakes",
    "Link": "http://www.cafelacoco.ie/",
    "State": null,
    "Latitude": 52.650093,
    "Longitude": -7.2516045,
    "Phone": "+353 56 775 2726",
    "Rating": 4.7,
    "GooglePlaceId": "ChIJZagKXp4wXUgREi034iNzIUg",
    "Hours": {
      "Mon-Wed": "08:00 - 15:00",
      "Thu-Sat": "08:00 - 16:00",
      "Sun": "09:00 - 16:00"
    },
    "Inside": true,
    "Outside": true
  },
  {
    "Name": "TRIBE Trucks",
    "Address": "Bettystown House, Narroways Rd, Betaghstown, Bettystown, Co. Meath, A92 ND62, Ireland",
    "ZipCode": "A92 ND62",
    "Type": "Food court",
    "OutDoorOnly": false,
    "Info": "pizzas, coffee, dog, prices, food truck, takeaway, tacos, the menu, waffle fries, burrito bowl",
    "Link": "https://www.tribetrucks.ie/",
    "State": "Co. Meath",
    "Latitude": 53.6993365,
    "Longitude": -6.2623069,
    "Phone": "+353 83 028 8797",
    "Rating": 4.3,
    "GooglePlaceId": "ChIJ42oQq_g7Z0gRgvIAtiex9B8",
    "Hours": {
      "Mon-Thu": "09:00 - 20:00",
      "Fri-Sat": "09:00 - 21:30",
      "Sun": "09:00 - 20:00"
    },
    "Inside": true
  },
  {
    "Name": "Dog Play Area",
    "Address": "H73W+28, Forgney, Feagh, Co. Longford, Ireland",
    "ZipCode": null,
    "Type": "Dog park",
    "OutDoorOnly": false,
    "Info": "",
    "Link": null,
    "State": "Co. Longford",
    "Latitude": 53.5525501,
    "Longitude": -7.7041924,
    "Phone": null,
    "Rating": 4.2,
    "GooglePlaceId": "ChIJ-ZHYKgDLXUgR9prW_D-IF_4",
    "Hours": {}
  },
  {
    "Name": "PARK BEO Greenway Hub",
    "Address": "P7QP+V9, Wilkinstown, Co. Meath, Ireland",
    "ZipCode": null,
    "Type": "Park",
    "OutDoorOnly": false,
    "Info": "coffee, toilets, bike rental, charging, e-bikes, amenity, snacks, gas station",
    "Link": "https://www.discoverireland.ie/meath/park-beo-greenway-hub",
    "State": "Co. Meath",
    "Latitude": 53.7394779,
    "Longitude": -6.7136392,
    "Phone": "+353 86 314 6780",
    "Rating": 4.7,
    "GooglePlaceId": "ChIJ_awWMABRZ0gRC_KodequUSY",
    "Hours": {
      "Mon-Fri": "09:00 - 19:00",
      "Sat-Sun": "08:30 - 19:00"
    }
  },
  {
    "Name": "Kings Bay Inn",
    "Address": "Kings Bay Inn, Main Street, Arthurstown, Co. Wexford, Y34 Y177, Ireland",
    "ZipCode": "Y34 Y177",
    "Type": "Pub",
    "OutDoorOnly": false,
    "Info": "atmosphere, dog, guinness, fish and chips, meal, chowder, salad, table, evening, thai green curry",
    "Link": "https://www.facebook.com/Kings-Bay-Inn-108924175062232/?ref=page_internal",
    "State": "Co. Wexford",
    "Latitude": 52.2421326,
    "Longitude": -6.9514899,
    "Phone": "+353 51 596 991",
    "Rating": 4.5,
    "GooglePlaceId": "ChIJCXagLCu_QkgRPZoeGTM65SQ",
    "Hours": {
      "Mon-Thu": "16:00 - 23:30",
      "Fri": "12:00 - 00:30",
      "Sat": "10:00 - 00:30",
      "Sun": "10:00 - 23:00"
    }
  },
  {
    "Name": "The Hollow Bar and Seafood Restaurant",
    "Address": "The hollow, Ramsgrange, New Ross, Co. Wexford, Ireland",
    "ZipCode": null,
    "Type": "Seafood restaurant",
    "OutDoorOnly": false,
    "Info": "area, wine, take away, brown bread, food and service, fresh, monkfish, fish and chips, scampi, starter",
    "Link": "https://facebook.com/TheHollowBar/",
    "State": "Co. Wexford",
    "Latitude": 52.2454324,
    "Longitude": -6.9018663,
    "Phone": "+353 51 389 230",
    "Rating": 4.6,
    "GooglePlaceId": "ChIJO_sHNlO5QkgR_o_g2XFYwkg",
    "Hours": {}
  },
  {
    "Name": "St Margaret's Beach Camping and Caravan Park",
    "Address": "Ladys Island, Rosslare Harbour, Co. Wexford, Ireland",
    "ZipCode": null,
    "Type": "Campground",
    "OutDoorOnly": false,
    "Info": "kitchen, walk, price, ferry, beaches, pub, campervan, well, amenities, distance",
    "Link": "https://www.facebook.com/campingwexford/",
    "State": "Co. Wexford",
    "Latitude": 52.2065024,
    "Longitude": -6.3558427,
    "Phone": "+353 89 614 2261",
    "Rating": 4.8,
    "GooglePlaceId": "ChIJ10qr2WMXaEgRXAk5umcckjs",
    "Hours": {}
  },
  {
    "Name": "La Cocina Cuevas",
    "Address": "Rath Great, Co. Dublin, K32 K797, Ireland",
    "ZipCode": "K32 K797",
    "Type": "Taco restaurant",
    "OutDoorOnly": false,
    "Info": "atmosphere, dog, beef, brunch, takeaway, food truck, blankets, evening, sound, tasting menu",
    "Link": "http://lacocinacuevas.com/",
    "State": "Co. Dublin",
    "Latitude": 53.564367,
    "Longitude": -6.275799,
    "Phone": "+353 83 899 4472",
    "Rating": 4.8,
    "GooglePlaceId": "ChIJRymKGRAXZ0gRwr0-i7gyXTo",
    "Hours": {
      "Mon-Wed": "Closed",
      "Thu": "17:00 - 20:15",
      "Fri": "17:30 - 20:15",
      "Sat": "17:30 - 20:00",
      "Sun": "11:00 - 13:00"
    }
  },
  {
    "Name": "Tom Neville's Pub, Fethard on Sea",
    "Address": "Hook Peninsula, Grange, Fethard, Co. Wexford, Y34 X239, Ireland",
    "ZipCode": "Y34 X239",
    "Type": "Irish pub",
    "OutDoorOnly": false,
    "Info": "prices, food and service, starter, fish and chips, chowder, guinness, greek food, value, chef, prawns",
    "Link": "https://www.facebook.com/profile.php?id=100091686813336",
    "State": "Co. Wexford",
    "Latitude": 52.1907518,
    "Longitude": -6.8392578,
    "Phone": "+353 87 911 7469",
    "Rating": 4.3,
    "GooglePlaceId": "ChIJtYB6Tru9QkgRg3vWJthCDR8",
    "Hours": {
      "Mon-Thu": "16:00 - 23:30",
      "Fri": "16:00 - 00:30",
      "Sat": "12:00 - 00:30",
      "Sun": "12:00 - 23:00"
    }
  },
  {
    "Name": "Picnic Ratoath - PICNIC",
    "Address": "Ratoath, Co. Meath, A85 XP29, Ireland",
    "ZipCode": "A85 XP29",
    "Type": "Cafe",
    "OutDoorOnly": true,
    "Info": "sandwich, prices, too good to go, shroom, melt, dip",
    "Link": "https://www.picnicratoath.ie/",
    "State": "Co. Meath",
    "Latitude": 53.5079498,
    "Longitude": -6.4620092,
    "Phone": "+353 1 689 5736",
    "Rating": 4.4,
    "GooglePlaceId": "ChIJ-Z8ssutrZ0gRzWt4zjUkLGg",
    "Hours": {
      "Mon-Sat": "08:00 - 15:00",
      "Sun": "Closed"
    },
    "Outside": true
  },
  {
    "Name": "Rabelo - Cafe, Bar and Venue",
    "Address": "Carlingford Marina, North Commons, Liberties Of Carlingford, Carlingford, Co. Louth, A91 DWP3, Ireland",
    "ZipCode": "A91 DWP3",
    "Type": "Cafe",
    "OutDoorOnly": false,
    "Info": "dog, atmosphere, prices, sauce, money, pool table, cocktails, parking, prawns, brownie",
    "Link": "http://www.carlingfordmarina.ie/",
    "State": "Co. Louth",
    "Latitude": 54.0518559,
    "Longitude": -6.1922449,
    "Phone": "+353 87 450 7613",
    "Rating": 4.3,
    "GooglePlaceId": "ChIJby-HjnTXYEgR6OkLD_TEKF8",
    "Hours": {
      "Mon": "09:00 - 23:00",
      "Tue-Wed": "Closed",
      "Thu": "09:00 - 23:00",
      "Fri-Sat": "09:00 - 02:00",
      "Sun": "09:00 - 23:00"
    }
  },
  {
    "Name": "BEO COFFEE",
    "Address": "Unit 2 Main St, Commons, Duleek, Co. Meath, A92 AD65, Ireland",
    "ZipCode": "A92 AD65",
    "Type": "Coffee shop",
    "OutDoorOnly": false,
    "Info": "dog, atmosphere, sausage rolls, flat white, local products, hot chocolate, artisan, raspberry, brownie, temperature",
    "Link": null,
    "State": "Co. Meath",
    "Latitude": 53.6547537,
    "Longitude": -6.4169688,
    "Phone": "+353 87 052 2541",
    "Rating": 4.7,
    "GooglePlaceId": "ChIJx0SOTT85Z0gRoMj85QtlvcU",
    "Hours": {
      "Mon-Fri": "07:00 - 16:00",
      "Sat": "08:30 - 16:00",
      "Sun": "09:00 - 16:00"
    },
    "Inside": true,
    "Outside": true
  },
  {
    "Name": "Days Bazaar Mullingar",
    "Address": "32 Oliver Plunkett St, Mullingar, Co. Westmeath, N91 F86P, Ireland",
    "ZipCode": "N91 F86P",
    "Type": "Cafe",
    "OutDoorOnly": false,
    "Info": "pizza, priced, gluten free, dog, to choose, atmosphere, goat's cheese, art gallery, sausage rolls, ham and cheese toastie",
    "Link": null,
    "State": "Co. Westmeath",
    "Latitude": 53.5251511,
    "Longitude": -7.3435859,
    "Phone": "+353 86 801 2001",
    "Rating": 4.5,
    "GooglePlaceId": "ChIJ-15mihzAXUgRZYh4WnNaT50",
    "Hours": {
      "Mon-Sat": "07:45 - 17:00",
      "Sun": "09:30 - 15:00"
    }
  },
  {
    "Name": "Courtyard Coffee Drogheda",
    "Address": "Merchant's Quay, Yellowbatter, Drogheda, Co. Louth, A92 YX7N, Ireland",
    "ZipCode": "A92 YX7N",
    "Type": "Coffee shop",
    "OutDoorOnly": false,
    "Info": "cake, price, parking, latte, business",
    "Link": null,
    "State": "Co. Louth",
    "Latitude": 53.7152629,
    "Longitude": -6.3454624,
    "Phone": null,
    "Rating": 4.9,
    "GooglePlaceId": "ChIJTXedV2s7Z0gRpw-ISK5O_jo",
    "Hours": {
      "Mon-Fri": "08:30 - 17:00",
      "Sat-Sun": "10:00 - 17:00"
    }
  },
  {
    "Name": "Grace Food & Coffee Culture",
    "Address": "10 Castle St, Mullingar, Co. Westmeath, N91 HN83, Ireland",
    "ZipCode": "N91 HN83",
    "Type": "Restaurant",
    "OutDoorOnly": false,
    "Info": "atmosphere, cafe, church, pastries, soup, dinner, barista, french toast, matcha, monte cristo",
    "Link": "https://www.gracefoodculture.com/",
    "State": "Co. Westmeath",
    "Latitude": 53.5270783,
    "Longitude": -7.3399379,
    "Phone": "+353 89 617 7641",
    "Rating": 4.9,
    "GooglePlaceId": "ChIJD85DCynBXUgRmZS6_LsdIyY",
    "Hours": {
      "Mon-Tue": "Closed",
      "Wed": "08:00 - 17:00",
      "Thu-Fri": "08:00 - 22:00",
      "Sat": "10:00 - 22:00",
      "Sun": "10:00 - 17:00"
    },
    "Inside": true,
    "Outside": true
  },
  {
    "Name": "Ponaire Coffee Roastery and Cafe",
    "Address": "Main St, Newport, Co. Tipperary, Ireland",
    "ZipCode": null,
    "Type": "Coffee shop",
    "OutDoorOnly": false,
    "Info": "quality, price, coffee roasted, customer service, beans, site, single origin, tasting, delivery, home",
    "Link": "https://www.ponaire.ie/",
    "State": "Co. Tipperary",
    "Latitude": 52.7112236,
    "Longitude": -8.4074566,
    "Phone": "+353 61 373 713",
    "Rating": 4.7,
    "GooglePlaceId": "ChIJRbwByTFfW0gRfX8Gc3quq94",
    "Hours": {
      "Mon-Fri": "07:30 - 15:00",
      "Sat": "08:00 - 15:00",
      "Sun": "09:00 - 14:00"
    },
    "Inside": true,
    "Outside": true
  },
  {
    "Name": "Dún a Rí Forest Park",
    "Address": "R179, Cabra, Kingscourt, Co. Cavan, Ireland",
    "ZipCode": null,
    "Type": "National forest",
    "OutDoorOnly": false,
    "Info": "picnic, toilets, parking, river, fee, pay, coins, wheelchair, castle, pond",
    "Link": "https://www.coillte.ie/site/dun-a-ri-forest-park/",
    "State": "Co. Cavan",
    "Latitude": 53.9189778,
    "Longitude": -6.7926615,
    "Phone": null,
    "Rating": 4.7,
    "GooglePlaceId": "ChIJHVTnlBmtYEgRJBJanbB5VEk",
    "Hours": {}
  },
  {
    "Name": "Mullingar Dog Park",
    "Address": "Royal Canal Way, Grange South, Mullingar, Co. Westmeath, Ireland",
    "ZipCode": null,
    "Type": "Park",
    "OutDoorOnly": false,
    "Info": "dogs, gates, canal, amenity, bench, addition, council, bowl, grass, walk",
    "Link": null,
    "State": "Co. Westmeath",
    "Latitude": 53.519255,
    "Longitude": -7.3654713,
    "Phone": null,
    "Rating": 4.5,
    "GooglePlaceId": "ChIJA6-qrDzBXUgRkUZZrx8rFD0",
    "Hours": {}
  },
  {
    "Name": "Box'D! Coffee Company",
    "Address": "Bandon Rd, The Lough, Cork, Ireland",
    "ZipCode": null,
    "Type": "Coffee shop",
    "OutDoorOnly": true,
    "Info": "matcha, dog",
    "Link": "https://boxd-coffee.ie/",
    "State": null,
    "Latitude": 51.8908646,
    "Longitude": -8.4877415,
    "Phone": null,
    "Rating": 4.4,
    "GooglePlaceId": "ChIJrxIvCwCRREgRR81oCcHFD7M",
    "Hours": {
      "Mon-Fri": "07:00 - 19:00",
      "Sat": "08:00 - 18:00",
      "Sun": "09:00 - 17:00"
    },
    "Outside": true
  },
  {
    "Name": "Tides Café",
    "Address": "Main Street, Ballyheige, Ballyheigue, Co. Kerry, V92 PY5P, Ireland",
    "ZipCode": "V92 PY5P",
    "Type": "Coffee shop",
    "OutDoorOnly": false,
    "Info": "beach, gluten free",
    "Link": "https://www.instagram.com/tides_cafe_ballyheigue?igsh=OHg2bmtnZGY3eXl5",
    "State": "Co. Kerry",
    "Latitude": 52.3895545,
    "Longitude": -9.8357235,
    "Phone": null,
    "Rating": 4.9,
    "GooglePlaceId": "ChIJ8VQ-IrC3WkgR36xjhL4kigs",
    "Hours": {
      "Mon-Thu": "08:30 - 17:00",
      "Fri-Sun": "08:00 - 17:00"
    },
    "Inside": true,
    "Outside": true
  },
  {
    "Name": "The Wild West Bar",
    "Address": "Main Street, Goleen, Co. Cork, P81 XN24, Ireland",
    "ZipCode": "P81 XN24",
    "Type": "Bar",
    "OutDoorOnly": false,
    "Info": "atmosphere, lunch, dog, fries, live music, craic, seafood linguine, beer garden, murphy's irish stout, mushy peas",
    "Link": null,
    "State": "Co. Cork",
    "Latitude": 51.4950364,
    "Longitude": -9.7114555,
    "Phone": "+353 28 35861",
    "Rating": 4.8,
    "GooglePlaceId": "ChIJwcPXWw2FRUgR8kyfcbsq-40",
    "Hours": {
      "Mon-Thu": "10:30 - 23:30",
      "Fri-Sat": "10:30 - 01:00",
      "Sun": "10:30 - 00:00"
    }
  },
  {
    "Name": "Rich Uncle Ted",
    "Address": "Off, Hollands Lane, Main St, Sleveen East, Macroom, Co. Cork, P12 AP03, Ireland",
    "ZipCode": "P12 AP03",
    "Type": "Coffee shop",
    "OutDoorOnly": false,
    "Info": "",
    "Link": null,
    "State": "Co. Cork",
    "Latitude": 51.9057983,
    "Longitude": -8.9587255,
    "Phone": null,
    "Rating": 5,
    "GooglePlaceId": "ChIJV0mn40_lREgRR5cL8nvBHrI",
    "Hours": {
      "Mon-Fri": "07:00 - 14:00",
      "Sat-Sun": "08:00 - 15:00"
    },
    "Inside": true
  },
  {
    "Name": "Murphy's Barn",
    "Address": "Skeeter Park, New Line Road, Co. Wexford, Ireland",
    "ZipCode": null,
    "Type": "Event venue",
    "OutDoorOnly": false,
    "Info": "coffee, garden, cheesecake, atmosphere, selection, ducks, soup, toastie, ham, trip",
    "Link": "https://www.murphysbarn.com/",
    "State": "Co. Wexford",
    "Latitude": 52.2964598,
    "Longitude": -6.5673029,
    "Phone": "+353 86 175 3323",
    "Rating": 4.8,
    "GooglePlaceId": "ChIJYfLYpogdaEgR6EbPo34w2YY",
    "Hours": {
      "Mon-Sun": "10:00 - 17:00"
    }
  },
  {
    "Name": "Fennellys of Callan",
    "Address": "13 Upper Bridge St, Callan South, Callan, Co. Kilkenny, R95 WK80, Ireland",
    "ZipCode": "R95 WK80",
    "Type": "Cafe",
    "OutDoorOnly": false,
    "Info": "atmosphere, lunch, cakes, gem, quiche, scones, trip, character, soup, pub",
    "Link": "https://m.facebook.com/fennellysbridgest/",
    "State": "Co. Kilkenny",
    "Latitude": 52.5453768,
    "Longitude": -7.39008,
    "Phone": "+353 86 069 1421",
    "Rating": 4.7,
    "GooglePlaceId": "ChIJn0SkBxcsXUgRkZe7JarfKqk",
    "Hours": {
      "Mon-Tue": "Closed",
      "Wed-Thu": "08:30 - 15:00",
      "Fri": "08:30 - 22:00",
      "Sat": "11:00 - 22:00",
      "Sun": "Closed"
    },
    "Inside": true
  },
  {
    "Name": "Hackett's Bar",
    "Address": "2 48 Main St, Meenvane, Schull, Co. Cork, P81 RX34, Ireland",
    "ZipCode": "P81 RX34",
    "Type": "Bar",
    "OutDoorOnly": false,
    "Info": "atmosphere, guinness, soups, lunch, live music, crab sandwich, mural, character, dog, name",
    "Link": "https://m.facebook.com/hackettsbarschull/?tsid=0.2497760925445751&source=result",
    "State": "Co. Cork",
    "Latitude": 51.5269146,
    "Longitude": -9.5452533,
    "Phone": "+353 28 28625",
    "Rating": 4.7,
    "GooglePlaceId": "ChIJ73lPc2qZRUgRGiEiFruEn-A",
    "Hours": {
      "Mon-Thu": "14:00 - 23:30",
      "Fri-Sat": "14:00 - 00:30",
      "Sun": "14:00 - 23:00"
    }
  },
  {
    "Name": "Killeen House Hotel",
    "Address": "Lakes of, Knoppoge, Aghadoe, Co. Kerry, V93 WR04, Ireland",
    "ZipCode": "V93 WR04",
    "Type": "Hotel",
    "OutDoorOnly": false,
    "Info": "dinner, bar, hospitality, garden, atmosphere, chef, comfortable, golf, menu, wine",
    "Link": "https://www.killeenhousehotel.com/en/?utm_source=google&utm_medium=organic&utm_campaign=Knowledge_Graph",
    "State": "Co. Kerry",
    "Latitude": 52.0753178,
    "Longitude": -9.5712114,
    "Phone": "+353 64 663 1711",
    "Rating": 4.8,
    "GooglePlaceId": "ChIJ3QuX8zw5RUgRD9vIVNEjAbI",
    "Hours": {}
  },
  {
    "Name": "The Mill Coffee and Treats",
    "Address": "Castlebridge Community Hall, behind Lowney's Treasure Trove Antiques, Castlebridge, Co. Wexford, Y35 XY24, Ireland",
    "ZipCode": "Y35 XY24",
    "Type": "Cafe",
    "OutDoorOnly": false,
    "Info": "carrot cake, area, cappuccino, snacks",
    "Link": null,
    "State": "Co. Wexford",
    "Latitude": 52.382868,
    "Longitude": -6.4497664,
    "Phone": "+353 87 202 9730",
    "Rating": 4.7,
    "GooglePlaceId": "ChIJw8u9tNgFaEgRdSYz_nW5fYA",
    "Hours": {
      "Mon-Sat": "10:00 - 16:00",
      "Sun": "10:30 - 14:30"
    }
  },
  {
    "Name": "Statham’s by Pembroke Kilkenny",
    "Address": "11 Patrick St, Gardens, Kilkenny, R95 VNP4, Ireland",
    "ZipCode": "R95 VNP4",
    "Type": "Restaurant",
    "OutDoorOnly": true,
    "Info": "atmosphere, brunch, hotel, dinner, hash browns, chef, starter, gnocchi, toffee pudding, wine pairing",
    "Link": "https://www.pembrokekilkenny.com/eat-and-drink",
    "State": null,
    "Latitude": 52.6496741,
    "Longitude": -7.2513813,
    "Phone": "+353 56 778 3500",
    "Rating": 4.5,
    "GooglePlaceId": "ChIJ-a8V9J4wXUgRWj4wmgo38jA",
    "Hours": {
      "Mon-Fri": "07:00 - 23:30",
      "Sat-Sun": "08:00 - 23:30"
    },
    "Outside": true
  },
  {
    "Name": "The Roberts Cove Inn",
    "Address": "Britfieldstown, Minane Bridge, Co. Cork, Ireland",
    "ZipCode": null,
    "Type": "Gastropub",
    "OutDoorOnly": false,
    "Info": "kids, lunch, chips, beach, price, cold, food and service, chowder, picnic, great spot",
    "Link": "https://www.instagram.com/robertscoveinngastrobar/",
    "State": "Co. Cork",
    "Latitude": 51.7445287,
    "Longitude": -8.3132057,
    "Phone": "+353 21 201 1894",
    "Rating": 4.1,
    "GooglePlaceId": "ChIJqzageLKHREgRK8mjmM65P58",
    "Hours": {},
    "Inside": true,
    "Outside": true
  },
  {
    "Name": "Wild Tails Café",
    "Address": "Apartment 1, Canal Square, Dukesmeadows, Kilkenny, R95 T027, Ireland",
    "ZipCode": "R95 T027",
    "Type": "Cafe",
    "OutDoorOnly": false,
    "Info": "dog, window, atmosphere, hot chocolate, latte, flat white, croissant, environment, cappuccino, matcha",
    "Link": "https://www.wildtailsco.com/",
    "State": null,
    "Latitude": 52.6515026,
    "Longitude": -7.2507859,
    "Phone": null,
    "Rating": 4.9,
    "GooglePlaceId": "ChIJ4ZAFNPkxXUgRU0PJ7XKizgY",
    "Hours": {
      "Mon": "Closed",
      "Tue-Thu": "08:00 - 16:00",
      "Fri-Sat": "08:00 - 17:00",
      "Sun": "09:00 - 16:00"
    }
  },
  {
    "Name": "Daisy Chain",
    "Address": "Main St, Graiguenamanagh, Graiguenamanagh-Tinnahinch, Co. Kilkenny, Ireland",
    "ZipCode": null,
    "Type": "Coffee shop",
    "OutDoorOnly": false,
    "Info": "lunch, flowers, BLT, gift, scones, dog",
    "Link": null,
    "State": "Co. Kilkenny",
    "Latitude": 52.5421797,
    "Longitude": -6.956321,
    "Phone": null,
    "Rating": 4.8,
    "GooglePlaceId": "ChIJA5KOzcBNXUgRxP96ny6aCBo",
    "Hours": {
      "Mon-Sun": "07:00 - 16:00"
    }
  },
  {
    "Name": "Aroma tearooms and cafe",
    "Address": "Dunbrody, Campile, Co. Wexford, Y34 YX74, Ireland",
    "ZipCode": "Y34 YX74",
    "Type": "Coffee shop",
    "OutDoorOnly": true,
    "Info": "abbey, bread, lunch, gluten-free, golf, history, selection, parking",
    "Link": "https://dunbrodyabbey.com/",
    "State": "Co. Wexford",
    "Latitude": 52.2820531,
    "Longitude": -6.9553462,
    "Phone": "+353 85 760 6056",
    "Rating": 4.7,
    "GooglePlaceId": "ChIJL5_x9US3QkgRu1FZgq0MGkk",
    "Hours": {
      "Mon-Sat": "11:00 - 16:00",
      "Sun": "11:00 - 17:00"
    },
    "Outside": true
  },
  {
    "Name": "The Coffee Mill",
    "Address": "White Mills, Knockdoorish, Kilbride, Co. Carlow, R93 AX58, Ireland",
    "ZipCode": "R93 AX58",
    "Type": "Coffee shop",
    "OutDoorOnly": false,
    "Info": "parking, snacks, toilets",
    "Link": "https://brand.page/thecoffeemill1835",
    "State": "Co. Carlow",
    "Latitude": 52.7099106,
    "Longitude": -6.7126171,
    "Phone": "+353 87 635 5517",
    "Rating": 5,
    "GooglePlaceId": "ChIJW7USAm9ZXUgRXjR3QVY1lIU",
    "Hours": {
      "Mon-Wed": "07:00 - 16:00",
      "Thu-Sat": "07:00 - 17:00",
      "Sun": "09:00 - 16:00"
    },
    "Inside": true,
    "Outside": true
  },
  {
    "Name": "ardú coffee",
    "Address": "Unit 7/8, Dunboyne Shopping Centre, Dunboyne, Co. Meath, A86 XD96, Ireland",
    "ZipCode": "A86 XD96",
    "Type": "Coffee shop",
    "OutDoorOnly": false,
    "Info": "pastries, dog, village, atmosphere, addition, beans, banana bread, bowl, almond, hospitality",
    "Link": "http://www.arducoffee.com/",
    "State": "Co. Meath",
    "Latitude": 53.4190021,
    "Longitude": -6.4765132,
    "Phone": null,
    "Rating": 4.7,
    "GooglePlaceId": "ChIJwy2nrPJtZ0gRzlczQmJDZHM",
    "Hours": {
      "Mon": "08:00 - 16:30",
      "Tue": "08:00 - 17:15",
      "Wed-Fri": "08:00 - 16:30",
      "Sat-Sun": "08:30 - 16:30"
    },
    "Inside": true
  },
  {
    "Name": "Brú Lab",
    "Address": "Glen View Business Park, Carnamogagh Upper, Letterkenny, Co. Donegal, Ireland",
    "ZipCode": null,
    "Type": "Coffee shop",
    "OutDoorOnly": false,
    "Info": "letterkenny, atmosphere, croissants, lunch, almond, cinnamon buns, bacon, iced latte, sourdough, dog",
    "Link": "http://www.brulab.ie/",
    "State": "Co. Donegal",
    "Latitude": 54.9726982,
    "Longitude": -7.7270674,
    "Phone": "+353 74 911 4941",
    "Rating": 4.7,
    "GooglePlaceId": "ChIJibNAqjnrX0gRcBg64Sm2HYo",
    "Hours": {
      "Mon-Fri": "08:00 - 16:00",
      "Sat": "09:00 - 16:00",
      "Sun": "10:00 - 16:00"
    },
    "Inside": true,
    "Outside": true
  },
  {
    "Name": "Esquires - The Organic Coffee (Wellpark, Galway)",
    "Address": "Unit 13/14, Wellpark Retail Park, Galway, H91 KAW7, Ireland",
    "ZipCode": "H91 KAW7",
    "Type": "Cafe",
    "OutDoorOnly": false,
    "Info": "interior, atmosphere, fries, self service, flat whites, sourdough, travel, gluten free, dog, machines",
    "Link": "https://www.esquirescoffee.ie/",
    "State": null,
    "Latitude": 53.28181,
    "Longitude": -9.031963,
    "Phone": "+353 91 448 426",
    "Rating": 4.4,
    "GooglePlaceId": "ChIJaaR30o6XW0gR0uzs_2I32TU",
    "Hours": {
      "Mon-Sat": "08:30 - 17:00",
      "Sun": "09:00 - 17:00"
    }
  },
  {
    "Name": "The Dog House",
    "Address": "Navenny St, Ballybofey, Co. Donegal, F93 XHN7, Ireland",
    "ZipCode": "F93 XHN7",
    "Type": "Pub",
    "OutDoorOnly": false,
    "Info": "atmosphere, entertainment, dogs",
    "Link": null,
    "State": "Co. Donegal",
    "Latitude": 54.7983763,
    "Longitude": -7.7804375,
    "Phone": "+353 74 913 0186",
    "Rating": 4.5,
    "GooglePlaceId": "ChIJDwjNSya5X0gRHYItwUobltU",
    "Hours": {
      "Mon-Thu": "10:30 - 23:30",
      "Fri-Sat": "10:30 - 00:30",
      "Sun": "12:30 - 23:00"
    }
  },
  {
    "Name": "O’Neill's",
    "Address": "Letterbarra, Co. Donegal, Ireland",
    "ZipCode": null,
    "Type": "Bar",
    "OutDoorOnly": false,
    "Info": "atmosphere, guinness",
    "Link": null,
    "State": "Co. Donegal",
    "Latitude": 54.6900038,
    "Longitude": -8.1816839,
    "Phone": null,
    "Rating": 5,
    "GooglePlaceId": "ChIJt8LEGpwJX0gRwuGUNAQHjGc",
    "Hours": {}
  },
  {
    "Name": "The Beehive Pub",
    "Address": "Drumbaran, Co. Donegal, Ireland",
    "ZipCode": null,
    "Type": "Pub",
    "OutDoorOnly": false,
    "Info": "atmosphere, traditional irish music, watch, dog",
    "Link": null,
    "State": "Co. Donegal",
    "Latitude": 54.7619921,
    "Longitude": -8.4145138,
    "Phone": null,
    "Rating": 4.7,
    "GooglePlaceId": "ChIJ__-mIwESX0gRYoox7rVU-tA",
    "Hours": {
      "Mon-Sun": "12:00 - 23:00"
    }
  },
  {
    "Name": "Strokestown Park House Coffee Shop",
    "Address": "QWG2+9R, Cloonradoon, Strokestown, Co. Roscommon, Ireland",
    "ZipCode": null,
    "Type": "Coffee shop",
    "OutDoorOnly": false,
    "Info": "dog",
    "Link": null,
    "State": "Co. Roscommon",
    "Latitude": 53.7760204,
    "Longitude": -8.0979651,
    "Phone": null,
    "Rating": 4.4,
    "GooglePlaceId": "ChIJpaOvctYpXEgR2n5TGCiHrks",
    "Hours": {}
  },
  {
    "Name": "The Dog House Blue's Tea Room Restaurant",
    "Address": "Howth Dart Station, Howth Rd, Howth, Dublin, Ireland",
    "ZipCode": null,
    "Type": "Cafe",
    "OutDoorOnly": false,
    "Info": "pizza, fish and chips, couches, chowder, mussels, teapot, chilled, dog friendly, decorations, doghouse",
    "Link": "https://thedoghousehowth.com/",
    "State": null,
    "Latitude": 53.388795,
    "Longitude": -6.0746619,
    "Phone": "+353 1 839 5188",
    "Rating": 4.1,
    "GooglePlaceId": "ChIJpzXwCr4EZ0gRJJU8Ky13Fek",
    "Hours": {
      "Mon-Sun": "10:00 - 23:00"
    }
  },
  {
    "Name": "The cozy Frenchie",
    "Address": "90 Northwood Ave, Santry Demesne, Dublin, D09 RF66, Ireland",
    "ZipCode": "D09 RF66",
    "Type": "Coffee shop",
    "OutDoorOnly": false,
    "Info": "customer service",
    "Link": null,
    "State": null,
    "Latitude": 53.3990254,
    "Longitude": -6.2453545,
    "Phone": "+353 89 942 3613",
    "Rating": 5,
    "GooglePlaceId": "ChIJxZgF1KcPZ0gRYvGwq41PwJ0",
    "Hours": {
      "Mon-Tue": "10:00 - 16:00",
      "Wed-Fri": "Closed",
      "Sat-Sun": "10:00 - 16:00"
    }
  },
  {
    "Name": "The Dog & Duck Pub",
    "Address": "Ballaghkeeran Little, Athlone, Co. Westmeath, Ireland",
    "ZipCode": null,
    "Type": "Pub",
    "OutDoorOnly": false,
    "Info": "pizza, atmosphere, guinness, craic, campsite, family, pool table, area, social distancing, sports",
    "Link": null,
    "State": "Co. Westmeath",
    "Latitude": 53.4487859,
    "Longitude": -7.8880153,
    "Phone": "+353 90 647 5797",
    "Rating": 4.6,
    "GooglePlaceId": "ChIJqxqK_YdJXEgRyCgKW8yJFuE",
    "Hours": {
      "Mon-Thu": "16:00 - 23:30",
      "Fri": "16:00 - 00:30",
      "Sat": "14:00 - 00:30",
      "Sun": "12:00 - 23:00"
    }
  },
  {
    "Name": "Pirates of the Coffeebean",
    "Address": "Beach, An Fhearthainn, Co. Donegal, Ireland",
    "ZipCode": null,
    "Type": "Cafe",
    "OutDoorOnly": false,
    "Info": "beach, pizza, pastries, soup, hot chocolate, picnic, area, car, gluten free, local produce",
    "Link": null,
    "State": "Co. Donegal",
    "Latitude": 54.8390816,
    "Longitude": -8.4455973,
    "Phone": null,
    "Rating": 4.8,
    "GooglePlaceId": "ChIJHbeB0E8RX0gRSRTM3V1UiEM",
    "Hours": {
      "Mon-Wed": "10:00 - 18:00",
      "Thu-Sun": "10:00 - 21:30"
    },
    "Inside": true,
    "Outside": true
  },
  {
    "Name": "Goat In The Boat",
    "Address": "26 Harbour Rd, Townparks, Skerries, Co. Dublin, K34 ED91, Ireland",
    "ZipCode": "K34 ED91",
    "Type": "Cafe",
    "OutDoorOnly": false,
    "Info": "dog, harbour, atmosphere, gelato, sausage rolls, table, carrot cake, pistachio, croissant, gift shop",
    "Link": "http://www.goatintheboatskerries.com/",
    "State": "Co. Dublin",
    "Latitude": 53.5852246,
    "Longitude": -6.1050637,
    "Phone": "+353 1 810 5687",
    "Rating": 4.4,
    "GooglePlaceId": "ChIJc0-dyAYiZ0gReJp4lweIWYA",
    "Hours": {
      "Mon-Sun": "08:30 - 18:00"
    }
  },
  {
    "Name": "Nico's Food & Wine",
    "Address": "Upper, Main St, Ardmanagh, Schull, Co. Cork, P81 DX56, Ireland",
    "ZipCode": "P81 DX56",
    "Type": "Restaurant",
    "OutDoorOnly": false,
    "Info": "atmosphere, garden, evening, prices, dog, main course, dining, gubbeen, hake, pan fried",
    "Link": null,
    "State": "Co. Cork",
    "Latitude": 51.5268701,
    "Longitude": -9.5475308,
    "Phone": "+353 85 218 0484",
    "Rating": 4.5,
    "GooglePlaceId": "ChIJUXT1jImZRUgRixff0uGq6kE",
    "Hours": {
      "Mon-Sun": "17:00 - 23:30"
    },
    "Inside": true,
    "Outside": true
  },
  {
    "Name": "Blue Door Restaurant",
    "Address": "Main St, Adare, Co. Limerick, Ireland",
    "ZipCode": null,
    "Type": "Restaurant",
    "OutDoorOnly": true,
    "Info": "atmosphere, lunch, thatched roof, salad, cottage pie, salmon, village, starter, prawn, food and service",
    "Link": "http://www.bluedooradare.com/",
    "State": "Co. Limerick",
    "Latitude": 52.5646599,
    "Longitude": -8.7878993,
    "Phone": "+353 61 396 481",
    "Rating": 4.4,
    "GooglePlaceId": "ChIJU8OPIwxGW0gRvVtb1EcQeiw",
    "Hours": {
      "Mon-Tue": "Closed",
      "Wed-Sat": "12:00 - 17:00, 18:00 - 21:00",
      "Sun": "12:00 - 17:00, 18:00 - 20:00"
    },
    "Outside": true
  },
  {
    "Name": "The Poppy Cup",
    "Address": "Station Rd, Blackabbey, Adare, Co. Limerick, V94 Y4DK, Ireland",
    "ZipCode": "V94 Y4DK",
    "Type": "Coffee shop",
    "OutDoorOnly": false,
    "Info": "atmosphere, acai bowl, dog, cappuccino, parking, smoothie, sustainable, hot chocolate, cookie, brunch",
    "Link": null,
    "State": "Co. Limerick",
    "Latitude": 52.5643147,
    "Longitude": -8.7911971,
    "Phone": "+353 87 165 0074",
    "Rating": 4.4,
    "GooglePlaceId": "ChIJr_2SZoRHW0gR5F1Ml8pJuf8",
    "Hours": {
      "Mon-Sun": "09:00 - 16:00"
    },
    "Inside": true,
    "Outside": true
  },
  {
    "Name": "Mungret Dog Park",
    "Address": "Dromdarrig, Mungret, Co. Limerick, V94 AYD8, Ireland",
    "ZipCode": "V94 AYD8",
    "Type": "Dog park",
    "OutDoorOnly": false,
    "Info": "play, gravel, walk, space, water, leash, lead, bowl, fence, running",
    "Link": null,
    "State": "Co. Limerick",
    "Latitude": 52.6316716,
    "Longitude": -8.6779138,
    "Phone": null,
    "Rating": 4.5,
    "GooglePlaceId": "ChIJzYGoBz9bW0gR92AvI8_SHC0",
    "Hours": {
      "Mon-Sun": "00:00 - 23:59"
    }
  },
  {
    "Name": "Bill Chawke's Bar Adare",
    "Address": "1 Rathkeale Rd, Adare, Co. Limerick, V94 P29D, Ireland",
    "ZipCode": "V94 P29D",
    "Type": "Bar",
    "OutDoorOnly": false,
    "Info": "atmosphere, guinness, price, beer garden, live music, village, stew, dog, irish music, traditional music",
    "Link": "http://www.billchawke.com/",
    "State": "Co. Limerick",
    "Latitude": 52.563317,
    "Longitude": -8.7925333,
    "Phone": "+353 61 396 160",
    "Rating": 4.4,
    "GooglePlaceId": "ChIJlYO6_RFGW0gR3N66MKd6hS4",
    "Hours": {
      "Mon-Thu": "10:30 - 23:30",
      "Fri-Sat": "10:30 - 01:30",
      "Sun": "12:00 - 23:00"
    }
  },
  {
    "Name": "Brother Bear Cafe",
    "Address": "Boherboy, Co. Limerick, V94 W425, Ireland",
    "ZipCode": "V94 W425",
    "Type": "Coffee shop",
    "OutDoorOnly": false,
    "Info": "acai bowl, choice, dog, bottle of water, pricing, queue, customer service",
    "Link": null,
    "State": "Co. Limerick",
    "Latitude": 52.618703,
    "Longitude": -8.8779388,
    "Phone": null,
    "Rating": 4.2,
    "GooglePlaceId": "ChIJTwfcdABHW0gR4jAMj--GNZ0",
    "Hours": {
      "Mon-Fri": "07:00 - 17:00",
      "Sat": "09:00 - 16:30",
      "Sun": "10:00 - 16:30"
    }
  },
  {
    "Name": "ESPRESSO ADARE",
    "Address": "Manor Fields, Graigue, Adare, Co. Limerick, V94 YHV0, Ireland",
    "ZipCode": "V94 YHV0",
    "Type": "Cafe",
    "OutDoorOnly": false,
    "Info": "beans, dog, cup, barista",
    "Link": "https://www.instagram.com/chilldbeans/?hl=en",
    "State": "Co. Limerick",
    "Latitude": 52.5548041,
    "Longitude": -8.7909937,
    "Phone": null,
    "Rating": 4.2,
    "GooglePlaceId": "ChIJXZrVWfJHW0gRjZjvVLIT5KE",
    "Hours": {
      "Mon-Tue": "Closed",
      "Wed-Sun": "09:00 - 16:00"
    }
  },
  {
    "Name": "The Kings Inn",
    "Address": "42 Bolton St, Dublin, D01 EH56, Ireland",
    "ZipCode": "D01 EH56",
    "Type": "Irish pub",
    "OutDoorOnly": false,
    "Info": "guinness, prices, sports, chat, whiskey, tourist, living room, museum, interior, fireplace",
    "Link": null,
    "State": null,
    "Latitude": 53.3523,
    "Longitude": -6.2691087,
    "Phone": "+353 1 878 2899",
    "Rating": 4.7,
    "GooglePlaceId": "ChIJm7wg24EOZ0gRhvk5QyBT-r0",
    "Hours": {
      "Mon-Thu": "13:00 - 23:30",
      "Fri-Sat": "13:00 - 00:30",
      "Sun": "13:00 - 23:00"
    }
  },
  {
    "Name": "The Greyhound Bar Kilkee",
    "Address": "O'Curry St, Dough, Kilkee, Co. Clare, V15 CX77, Ireland",
    "ZipCode": "V15 CX77",
    "Type": "Bar",
    "OutDoorOnly": false,
    "Info": "atmosphere, music venue, bands, guinness, beer garden, wine, halftime show, black pudding, books, evening",
    "Link": "https://m.facebook.com/www.thegreyhoundbar.ie/",
    "State": "Co. Clare",
    "Latitude": 52.6779988,
    "Longitude": -9.6495208,
    "Phone": null,
    "Rating": 4.7,
    "GooglePlaceId": "ChIJjWky82voWkgRDjvWjSXfN-w",
    "Hours": {
      "Mon-Wed": "Closed",
      "Thu": "16:00 - 23:00",
      "Fri-Sun": "16:00 - 00:00"
    }
  },
  {
    "Name": "Dodder Valley Park",
    "Address": "20 Bawnville Cl, Oldbawn, Dublin 24, D24 TCW7, Ireland",
    "ZipCode": "D24 TCW7",
    "Type": "Park",
    "OutDoorOnly": false,
    "Info": "walk, dog, run, cycling, picnic, flowers, basketball, tennis courts, waterfall, sound",
    "Link": "http://doddervalleypark.ie/",
    "State": null,
    "Latitude": 53.279307,
    "Longitude": -6.3522485,
    "Phone": null,
    "Rating": 4.5,
    "GooglePlaceId": "ChIJY0MRmjALZ0gR8H0oU6pjigg",
    "Hours": {
      "Mon-Sun": "00:00 - 23:59"
    }
  },
  {
    "Name": "Barista Bike Cafe at Steam Museum",
    "Address": "Lodge Park, Lodgepark, Straffan, Co. Kildare, Ireland",
    "ZipCode": null,
    "Type": "Cafe",
    "OutDoorOnly": false,
    "Info": "atmosphere, lunch, gardens, dogs, gem, quiche, scones, full irish breakfast, polite, the menu",
    "Link": "http://www.barista.bike/",
    "State": "Co. Kildare",
    "Latitude": 53.3119895,
    "Longitude": -6.5986354,
    "Phone": "+353 86 066 0033",
    "Rating": 4.9,
    "GooglePlaceId": "ChIJx1nOW-VxZ0gRLYvnH7HPihM",
    "Hours": {
      "Mon-Sun": "09:30 - 16:00"
    }
  },
  {
    "Name": "Grounded",
    "Address": "Bank House, Bird Ave, Clonskeagh, Dublin, D14 RX74, Ireland",
    "ZipCode": "D14 RX74",
    "Type": "Coffee shop",
    "OutDoorOnly": false,
    "Info": "dog, pastries, sausage rolls, atmosphere, cup, latte, hot chocolate, almond croissant, flat white, cash",
    "Link": "http://instagram.com/groundeddublin",
    "State": null,
    "Latitude": 53.3058706,
    "Longitude": -6.237258,
    "Phone": null,
    "Rating": 4.4,
    "GooglePlaceId": "ChIJuZLo2GsJZ0gRPYEpkxOPivY",
    "Hours": {
      "Mon-Fri": "07:30 - 15:00",
      "Sat-Sun": "08:30 - 15:00"
    }
  },
  {
    "Name": "Coffee@TheEdge",
    "Address": "Avonmore Rd, Tallaght, Dublin, D24 K07Y, Ireland",
    "ZipCode": "D24 K07Y",
    "Type": "Cafe",
    "OutDoorOnly": false,
    "Info": "dogs, atmosphere, walk, prices, wrap, park, lunch, scones, community, sausage rolls",
    "Link": null,
    "State": null,
    "Latitude": 53.2874552,
    "Longitude": -6.3395561,
    "Phone": "+353 85 773 1502",
    "Rating": 4.6,
    "GooglePlaceId": "ChIJyQaEh10LZ0gRphAhb1MnjIo",
    "Hours": {
      "Mon": "10:00 - 17:00",
      "Tue-Fri": "08:00 - 17:00",
      "Sat-Sun": "10:00 - 17:00"
    }
  },
  {
    "Name": "Hey Darling Sallins",
    "Address": "Canal View, Osberstown, Sallins, Co. Kildare, W91 C786, Ireland",
    "ZipCode": "W91 C786",
    "Type": "Coffee shop",
    "OutDoorOnly": false,
    "Info": "atmosphere, canal, pastries, dog",
    "Link": null,
    "State": "Co. Kildare",
    "Latitude": 53.2489203,
    "Longitude": -6.6648397,
    "Phone": null,
    "Rating": 4.7,
    "GooglePlaceId": "ChIJK6TZ_-p5Z0gR4gy6XtWF-QQ",
    "Hours": {
      "Mon-Fri": "07:30 - 16:00",
      "Sat-Sun": "08:30 - 16:00"
    }
  },
  {
    "Name": "The Glimmer Man",
    "Address": "14 Stoneybatter, Dublin, D07 RK37, Ireland",
    "ZipCode": "D07 RK37",
    "Type": "Pub",
    "OutDoorOnly": false,
    "Info": "guinness, ATM, beer garden, food truck, jukebox, great spot, memorabilia, darts, craic, smoking",
    "Link": "http://www.theglimmerman.com/",
    "State": null,
    "Latitude": 53.3508467,
    "Longitude": -6.2820318,
    "Phone": "+353 1 677 9781",
    "Rating": 4.5,
    "GooglePlaceId": "ChIJ-8Y56i0MZ0gRNPQ2Fr_nuE4",
    "Hours": {
      "Mon-Tue": "Closed",
      "Wed": "18:00 - 23:30",
      "Thu": "17:00 - 23:30",
      "Fri": "17:00 - 00:30",
      "Sat": "15:00 - 00:30",
      "Sun": "15:00 - 23:00"
    }
  },
  {
    "Name": "The Circular & The Other Hand Bar",
    "Address": "536-538 S Circular Rd, Rialto, Dublin 8, D08 CC02, Ireland",
    "ZipCode": "D08 CC02",
    "Type": "Bar",
    "OutDoorOnly": false,
    "Info": "pizza, atmosphere, cocktails, dog, guinness, selection, craft beers, menu, people, hipster",
    "Link": "http://thecircular.ie/",
    "State": null,
    "Latitude": 53.3362013,
    "Longitude": -6.2979347,
    "Phone": "+353 1 558 2489",
    "Rating": 4.4,
    "GooglePlaceId": "ChIJlyqvwEQNZ0gRTMkF-CjCM8c",
    "Hours": {
      "Mon-Thu": "16:00 - 00:00",
      "Fri": "16:00 - 01:00",
      "Sat": "14:00 - 01:00",
      "Sun": "14:00 - 23:00"
    }
  },
  {
    "Name": "The Bath Pub",
    "Address": "26 Bath Ave, Dublin 4, D04 X7P8, Ireland",
    "ZipCode": "D04 X7P8",
    "Type": "Pub",
    "OutDoorOnly": false,
    "Info": "pizza, brunch, guinness, crowd, aviva stadium, rugby, match, pancakes, belgian beers, football",
    "Link": "http://www.thebathpub.ie/",
    "State": null,
    "Latitude": 53.3374601,
    "Longitude": -6.2322026,
    "Phone": "+353 89 241 5804",
    "Rating": 4.4,
    "GooglePlaceId": "ChIJieJ8aeoOZ0gRnUL27XjYDrY",
    "Hours": {
      "Mon-Thu": "16:00 - 23:30",
      "Fri": "15:00 - 00:30",
      "Sat": "11:00 - 00:30",
      "Sun": "11:00 - 23:00"
    }
  },
  {
    "Name": "Black Dog Coffee",
    "Address": "Main St, Johnstown, Enfield, Co. Meath, Ireland",
    "ZipCode": null,
    "Type": "Coffee shop",
    "OutDoorOnly": false,
    "Info": "dogs, cookie, atmosphere, espresso, ham, nutella, bowl, chat, flat white, latte",
    "Link": "https://www.alpha.facebook.com/BlackDog-Coffee-100866232146794/",
    "State": "Co. Meath",
    "Latitude": 53.4145061,
    "Longitude": -6.8315678,
    "Phone": null,
    "Rating": 4.9,
    "GooglePlaceId": "ChIJneL71iZjZ0gR_7VvXIRxfAg",
    "Hours": {
      "Mon-Thu": "07:00 - 16:00",
      "Fri": "07:00 - 17:00",
      "Sat": "08:00 - 17:00",
      "Sun": "09:00 - 17:00"
    }
  },
  {
    "Name": "Ground Social",
    "Address": "Chapel Ln, Osberstown, Co. Kildare, W91 HD78, Ireland",
    "ZipCode": "W91 HD78",
    "Type": "Coffee shop",
    "OutDoorOnly": false,
    "Info": "latte, train, dog, music, cappuccino",
    "Link": "http://www.groundsocialcafe.ie/",
    "State": "Co. Kildare",
    "Latitude": 53.2485187,
    "Longitude": -6.6650307,
    "Phone": null,
    "Rating": 4.8,
    "GooglePlaceId": "ChIJL-G1XAp5Z0gR2j-cH0jhQeo",
    "Hours": {
      "Mon-Fri": "08:00 - 15:30",
      "Sat-Sun": "09:00 - 15:00"
    }
  },
  {
    "Name": "Vine Cottage Bar",
    "Address": "Saltmills, New Ross, Co. Wexford, Y34 WN83, Ireland",
    "ZipCode": "Y34 WN83",
    "Type": "Bar",
    "OutDoorOnly": false,
    "Info": "pizza, playground, beer garden, atmosphere, menu, guinness, walking, great spot, dog, prices",
    "Link": "http://www.vinecottagebar.ie/",
    "State": "Co. Wexford",
    "Latitude": 52.2274332,
    "Longitude": -6.8329155,
    "Phone": "+353 87 652 5421",
    "Rating": 4.7,
    "GooglePlaceId": "ChIJB_YK71-8QkgR0pV64Sb-zVU",
    "Hours": {
      "Mon-Thu": "12:00 - 23:30",
      "Fri-Sat": "12:00 - 00:30",
      "Sun": "12:00 - 23:00"
    }
  },
  {
    "Name": "Navy café",
    "Address": "5 Bayview, Bettystown, Co. Meath, Ireland",
    "ZipCode": null,
    "Type": "Cafe",
    "OutDoorOnly": true,
    "Info": "beach, lunch, table, relish, window, book, salad, food and service, tacos, french toast",
    "Link": "http://www.relishcafe.ie/",
    "State": "Co. Meath",
    "Latitude": 53.696704,
    "Longitude": -6.2431834,
    "Phone": "+353 41 981 3344",
    "Rating": 4.5,
    "GooglePlaceId": "ChIJx2lbhC47Z0gRXwLeiORN7MI",
    "Hours": {
      "Mon": "09:30 - 17:00",
      "Tue": "09:30 - 17:30",
      "Wed-Thu": "09:30 - 17:00",
      "Fri-Sun": "09:30 - 17:30"
    }
  },
  {
    "Name": "Old News Coffee",
    "Address": "22 Pearse St, Mullingar, Co. Westmeath, N91 VYP0, Ireland",
    "ZipCode": "N91 VYP0",
    "Type": "Coffee shop",
    "OutDoorOnly": false,
    "Info": "syrup, cup",
    "Link": null,
    "State": "Co. Westmeath",
    "Latitude": 53.5260504,
    "Longitude": -7.3402541,
    "Phone": "+353 87 032 4226",
    "Rating": 4.8,
    "GooglePlaceId": "ChIJkxeZe7zBXUgRYzBOrapcIrw",
    "Hours": {
      "Mon-Fri": "06:30 - 16:30",
      "Sat-Sun": "07:30 - 16:30"
    },
    "Inside": true,
    "Outside": true
  },
  {
    "Name": "Cloud Cafe",
    "Address": "43 N Strand Rd, North Strand, Dublin 3, D03 E977, Ireland",
    "ZipCode": "D03 E977",
    "Type": "Cafe",
    "OutDoorOnly": false,
    "Info": "prices, brunch, dog, takeaway, atmosphere, table, bacon, latte, brownie, pancakes",
    "Link": "http://www.cloudcafe.ie/",
    "State": null,
    "Latitude": 53.3573049,
    "Longitude": -6.2434409,
    "Phone": "+353 89 206 2648",
    "Rating": 4.6,
    "GooglePlaceId": "ChIJWX2RAWAOZ0gR9XmdZskEo9Q",
    "Hours": {
      "Mon": "Closed",
      "Tue-Fri": "08:30 - 16:00",
      "Sat": "09:00 - 16:00",
      "Sun": "10:00 - 16:00"
    }
  },
  {
    "Name": "The Village Garden",
    "Address": "20 Main St, Haggardstown, Blackrock, Co. Louth, A91 W188, Ireland",
    "ZipCode": "A91 W188",
    "Type": "Coffee shop",
    "OutDoorOnly": false,
    "Info": "flowers, dog, cup, latte",
    "Link": null,
    "State": "Co. Louth",
    "Latitude": 53.9629606,
    "Longitude": -6.366142,
    "Phone": null,
    "Rating": 4.8,
    "GooglePlaceId": "ChIJ4c9NlFfMYEgRfaCzIZ8_V2o",
    "Hours": {
      "Mon-Sat": "08:30 - 17:00",
      "Sun": "09:00 - 16:00"
    }
  },
  {
    "Name": "Ramona’s Take-Away Adare",
    "Address": "Station Rd, Blackabbey, Adare, Co. Limerick, Ireland",
    "ZipCode": null,
    "Type": "Fish and chips takeaway",
    "OutDoorOnly": true,
    "Info": "prices, cooked, pizza, cod, gluten free, fast food, vinegar, fresh food, lollipops, breaded",
    "Link": "https://ramonas.ie/",
    "State": "Co. Limerick",
    "Latitude": 52.5650014,
    "Longitude": -8.7916159,
    "Phone": "+353 61 395 889",
    "Rating": 4.1,
    "GooglePlaceId": "ChIJBby96w1GW0gRuJunr3dP6qs",
    "Hours": {
      "Mon-Sun": "15:00 - 22:00"
    },
    "Outside": true
  },
  {
    "Name": "Creedon's Dog Care",
    "Address": "South Cork Industrial Estate, Vicars Rd, Togher, Cork, Ireland",
    "ZipCode": null,
    "Type": "Dog day care center",
    "OutDoorOnly": false,
    "Info": "groom, student, daycare, hotel, home, morning, tired, dog training, hair, smell",
    "Link": "http://www.creedonsdogcare.ie/",
    "State": null,
    "Latitude": 51.8779811,
    "Longitude": -8.4867078,
    "Phone": "+353 21 491 5752",
    "Rating": 4.6,
    "GooglePlaceId": "ChIJp40jituPREgRq8wIsNWA4Co",
    "Hours": {
      "Mon-Fri": "07:00 - 18:45",
      "Sat-Sun": "Closed"
    }
  },
  {
    "Name": "Dundalk Stadium",
    "Address": "Racecourse Road, Dowdallshill, Dundalk, Co. Louth, A91 FFP3, Ireland",
    "ZipCode": "A91 FFP3",
    "Type": "Racecourse",
    "OutDoorOnly": false,
    "Info": "craic, atmosphere, dog racing, party, evening, bar, christmas, betting, great night out, greyhounds",
    "Link": "http://www.dundalkstadium.com/",
    "State": "Co. Louth",
    "Latitude": 54.020808,
    "Longitude": -6.3832501,
    "Phone": "+353 42 933 4438",
    "Rating": 4.5,
    "GooglePlaceId": "ChIJq6PbdJLOYEgRfJIGPBjMZt8",
    "Hours": {}
  },
  {
    "Name": "HOMEGROUND",
    "Address": "Hyde Rd, Dalkey, Co. Dublin, Ireland",
    "ZipCode": null,
    "Type": "Coffee shop",
    "OutDoorOnly": false,
    "Info": "flat white, pastries, prices, seats, dog",
    "Link": "https://instagram.com/homegroundcoffeevan",
    "State": "Co. Dublin",
    "Latitude": 53.2787876,
    "Longitude": -6.1076008,
    "Phone": null,
    "Rating": 4.9,
    "GooglePlaceId": "ChIJfTt3vocHZ0gRkS9jAEY8VvU",
    "Hours": {
      "Mon-Fri": "08:00 - 14:00",
      "Sat-Sun": "09:00 - 14:00"
    }
  },
  {
    "Name": "Three Little Birds Cafe",
    "Address": "Unit 12, 32 Old Cabra Rd, Cabra East, Dublin, D07 AX94, Ireland",
    "ZipCode": "D07 AX94",
    "Type": "Cafe",
    "OutDoorOnly": false,
    "Info": "atmosphere, acai bowls, dog, focaccia, porridge, matcha, pastries, sound, door, kids",
    "Link": "https://www.instagram.com/threelittlebirds.cafe/",
    "State": null,
    "Latitude": 53.3580216,
    "Longitude": -6.2892797,
    "Phone": null,
    "Rating": 4.8,
    "GooglePlaceId": "ChIJDxgmfRcNZ0gRHwT8zVPUBsg",
    "Hours": {
      "Mon-Fri": "07:00 - 16:00",
      "Sat-Sun": "08:00 - 16:00"
    },
    "Inside": true
  },
  {
    "Name": "Woofwalks Cobh",
    "Address": "Rosslague, Cobh, Co. Cork, P24 W864, Ireland",
    "ZipCode": "P24 W864",
    "Type": "Dog park",
    "OutDoorOnly": false,
    "Info": "leash, price, space, environment, reactive, lead, water",
    "Link": "http://www.woofwalkscobh.ie/",
    "State": "Co. Cork",
    "Latitude": 51.878274,
    "Longitude": -8.2740945,
    "Phone": "+353 87 452 2177",
    "Rating": 4.7,
    "GooglePlaceId": "ChIJfWhptr6DREgRgAzk0MtoXN0",
    "Hours": {
      "Mon-Sun": "06:45 - 20:30"
    }
  },
  {
    "Name": "McDonnells Bar & Undertakers",
    "Address": "Lower Barrack St, Belmullet, Co. Mayo, Ireland",
    "ZipCode": null,
    "Type": "Bar",
    "OutDoorOnly": false,
    "Info": "atmosphere, guinness, craic, live music, evening, handshake, gentleman, landlord, dog, slainte",
    "Link": "https://m.facebook.com/pages/McDonnells-Bar/195053663841286",
    "State": "Co. Mayo",
    "Latitude": 54.2235962,
    "Longitude": -9.9867013,
    "Phone": "+353 97 81194",
    "Rating": 4.8,
    "GooglePlaceId": "ChIJE6O4h0OoWUgR-r2Iim-Ur-w",
    "Hours": {
      "Mon-Thu": "10:30 - 23:30",
      "Fri-Sat": "10:30 - 00:30",
      "Sun": "12:30 - 23:30"
    }
  },
  {
    "Name": "A Little Bird Told Me",
    "Address": "44 Patrick St, Mullingar, Co. Westmeath, N91 VR04, Ireland",
    "ZipCode": "N91 VR04",
    "Type": "Coffee shop",
    "OutDoorOnly": false,
    "Info": "garden, atmosphere, pastries, gem, dog, hot chocolate, sausage rolls, compost, toastie, room",
    "Link": null,
    "State": "Co. Westmeath",
    "Latitude": 53.5239306,
    "Longitude": -7.3495139,
    "Phone": "+353 89 245 2001",
    "Rating": 4.9,
    "GooglePlaceId": "ChIJqXvGdTTvXUgROAOnf-X6M8A",
    "Hours": {
      "Mon": "09:30 - 15:00",
      "Tue-Fri": "08:15 - 16:30",
      "Sat": "08:30 - 16:00",
      "Sun": "09:30 - 15:00"
    }
  },
  {
    "Name": "Tailblazers Dog Park",
    "Address": "Newrath Road, Newrath, Co. Kilkenny, Ireland",
    "ZipCode": null,
    "Type": "Dog park",
    "OutDoorOnly": false,
    "Info": "water, lead, bags, fencing, amenities, mind, parking, fantastic place, picnic tables, weather",
    "Link": "https://www.tailblazers.ie/",
    "State": "Co. Kilkenny",
    "Latitude": 52.2734742,
    "Longitude": -7.1278279,
    "Phone": "+353 87 100 6575",
    "Rating": 4.9,
    "GooglePlaceId": "ChIJC-jxAAvFQkgRcya8FZBAgRw",
    "Hours": {
      "Mon-Sun": "07:00 - 19:00"
    }
  },
  {
    "Name": "P3 Café Ltd.",
    "Address": "Avoca House, Tanderagee, Bailieborough, Co. Cavan, A82 VX56, Ireland",
    "ZipCode": "A82 VX56",
    "Type": "Cafe",
    "OutDoorOnly": false,
    "Info": "child, toys, delivery, soup, luck, relish, rocky road, local produce, ingredients, flat white",
    "Link": "http://www.p3cafe.ie/",
    "State": "Co. Cavan",
    "Latitude": 53.9139329,
    "Longitude": -6.9644453,
    "Phone": "+353 89 436 7933",
    "Rating": 4.9,
    "GooglePlaceId": "ChIJ8TucF_WrYEgRaZ_NE_LbGuU",
    "Hours": {
      "Mon": "10:00 - 15:00",
      "Tue-Wed": "Closed",
      "Thu-Fri": "09:00 - 16:00",
      "Sat-Sun": "10:00 - 16:00"
    },
    "Inside": true,
    "Outside": true
  },
  {
    "Name": "mo chara",
    "Address": "19 Roden Pl, Townparks, Dundalk, Co. Louth, A91 AH7W, Ireland",
    "ZipCode": "A91 AH7W",
    "Type": "Irish pub",
    "OutDoorOnly": false,
    "Info": "craft beers, sound, craic, beer garden, soup, sambo, pulled pork, smoking area, curry, loaded fries",
    "Link": "https://mo-chara.ie/",
    "State": "Co. Louth",
    "Latitude": 54.0047545,
    "Longitude": -6.3981237,
    "Phone": null,
    "Rating": 4.8,
    "GooglePlaceId": "ChIJ89BNaOfPYEgRkGh8TjgQlLY",
    "Hours": {
      "Mon": "12:00 - 23:30",
      "Tue": "Closed",
      "Wed-Thu": "12:00 - 23:30",
      "Fri": "12:00 - 00:30",
      "Sat": "11:00 - 00:30",
      "Sun": "11:00 - 23:30"
    }
  },
  {
    "Name": "Hey Darling",
    "Address": "Morell Manor, Monread South, Naas, Co. Kildare, W91 D773, Ireland",
    "ZipCode": "W91 D773",
    "Type": "Coffee shop",
    "OutDoorOnly": false,
    "Info": "pastries, dog, bagels, atmosphere, parking, flat white, selection, blt bagel, pesto, nduja",
    "Link": "https://www.facebook.com/profile.php?id=100083350332480",
    "State": "Co. Kildare",
    "Latitude": 53.2370591,
    "Longitude": -6.6592051,
    "Phone": null,
    "Rating": 4.8,
    "GooglePlaceId": "ChIJx9C_AcF5Z0gRMjDmlv1vRbY",
    "Hours": {
      "Mon-Fri": "07:30 - 16:00",
      "Sat-Sun": "08:30 - 16:00"
    }
  },
  {
    "Name": "Rivesci",
    "Address": "80 Irishtown, Burgagery-Lands West, Clonmel, Co. Tipperary, E91 KR60, Ireland",
    "ZipCode": "E91 KR60",
    "Type": "Coffee shop",
    "OutDoorOnly": false,
    "Info": "dog, atmosphere, cashew, chilli, sausage rolls, coffee service, catsup, condiments, bowl, vegan",
    "Link": "http://www.rivesci.ie/",
    "State": "Co. Tipperary",
    "Latitude": 52.3521429,
    "Longitude": -7.7095756,
    "Phone": null,
    "Rating": 5,
    "GooglePlaceId": "ChIJnzmYOxpWrS0RDnvysHZGvpA",
    "Hours": {
      "Mon-Fri": "08:00 - 14:30",
      "Sat": "08:30 - 14:30",
      "Sun": "Closed"
    },
    "Inside": true,
    "Outside": true
  },
  {
    "Name": "The Riverside Cottage",
    "Address": "Knockboy Cross, Dunmore Rd, Waterford, Ireland",
    "ZipCode": null,
    "Type": "Gastropub",
    "OutDoorOnly": true,
    "Info": "food and service, atmosphere, parking, dinner, party, fish and chips, table, beer garden, room, steak",
    "Link": "https://www.theriversidecottage.ie/",
    "State": null,
    "Latitude": 52.2363889,
    "Longitude": -7.0594444,
    "Phone": "+353 51 873 082",
    "Rating": 4.3,
    "GooglePlaceId": "ChIJvxUJ2NTGQkgRSs5tBiDzkFw",
    "Hours": {
      "Mon-Sun": "12:00 - 22:00"
    }
  },
  {
    "Name": "Loko",
    "Address": "Ardkeen Shopping Centre, 1 Dunmore Rd, Farranshoneen, Waterford, Ireland",
    "ZipCode": null,
    "Type": "Restaurant",
    "OutDoorOnly": false,
    "Info": "dog, fries, atmosphere, cocktails, chicken wings, lunch, cold, evening, steak, coffee",
    "Link": null,
    "State": null,
    "Latitude": 52.2470168,
    "Longitude": -7.0830831,
    "Phone": "+353 51 841 040",
    "Rating": 4.3,
    "GooglePlaceId": "ChIJWzjWUsbGQkgRu8--nYy1LJg",
    "Hours": {}
  },
  {
    "Name": "The Grounds Restaurant",
    "Address": "Snow cottage, Crossfarnoge, Kilmore Quay, Co. Wexford, Y35 E922, Ireland",
    "ZipCode": "Y35 E922",
    "Type": "Restaurant",
    "OutDoorOnly": false,
    "Info": "coffee, lunch, atmosphere, prices, dog, interior, area, sourdough, prawn, potato hash",
    "Link": "https://the-grounds-bakery.square.site/",
    "State": "Co. Wexford",
    "Latitude": 52.1731288,
    "Longitude": -6.5898974,
    "Phone": "+353 53 912 9565",
    "Rating": 4.7,
    "GooglePlaceId": "ChIJfyNN4AGfQkgRSw2SvcPryFE",
    "Hours": {
      "Mon-Wed": "09:00 - 15:00",
      "Thu-Sun": "09:00 - 15:00, 17:30 - 20:30"
    }
  },
  {
    "Name": "Evalynn Coffee",
    "Address": "Unit 3b, Bryanstown Centre, Bryanstown, Drogheda, Co. Louth, A92 WK8N, Ireland",
    "ZipCode": "A92 WK8N",
    "Type": "Coffee shop",
    "OutDoorOnly": false,
    "Info": "pastries, dog, atmosphere, team, specialty coffee, latte, brownie, sausage rolls, bun, scone",
    "Link": "https://www.evalynncoffee.ie/",
    "State": "Co. Louth",
    "Latitude": 53.7083598,
    "Longitude": -6.3366102,
    "Phone": "+353 86 050 7558",
    "Rating": 4.8,
    "GooglePlaceId": "ChIJB3D2-QQ7Z0gRWjTmWvu0YEo",
    "Hours": {
      "Mon-Sat": "08:00 - 17:00",
      "Sun": "10:00 - 17:00"
    }
  },
  {
    "Name": "Brew with a View",
    "Address": "unit 3 La Touche Pl, Rathdown Lower, Greystones, Co. Wicklow, A63 V624, Ireland",
    "ZipCode": "A63 V624",
    "Type": "Coffee shop",
    "OutDoorOnly": false,
    "Info": "dog, hot chocolate, selection, pizza, vegan, soup, lemonade, brownies, pesto, paper cup",
    "Link": "https://www.bwav.ie/",
    "State": "Co. Wicklow",
    "Latitude": 53.1464966,
    "Longitude": -6.0640761,
    "Phone": "+353 1 287 0178",
    "Rating": 4.9,
    "GooglePlaceId": "ChIJ8xaM5sSpZ0gRRMRjBvNiYKQ",
    "Hours": {
      "Mon-Thu": "08:00 - 16:00",
      "Fri": "08:00 - 21:00",
      "Sat": "09:00 - 21:00",
      "Sun": "09:00 - 17:00"
    },
    "Inside": true,
    "Outside": true
  },
  {
    "Name": "DSPCA",
    "Address": "Mount Venus Rd, Rathfarnham, Dublin, Ireland",
    "ZipCode": null,
    "Type": "Animal rescue service",
    "OutDoorOnly": false,
    "Info": "job, kids, hotel, kennels, charity, doggie daycare, goats, respect, good cause, dog walkers",
    "Link": "http://www.dspca.ie/",
    "State": null,
    "Latitude": 53.2606989,
    "Longitude": -6.3089684,
    "Phone": "+353 1 499 4700",
    "Rating": 4.6,
    "GooglePlaceId": "ChIJhdSdElYKZ0gRPtikJZ93f_k",
    "Hours": {
      "Mon": "Closed",
      "Tue-Sun": "12:00 - 16:00"
    }
  },
  {
    "Name": "Ballycragh Park",
    "Address": "Ballycragh, Dublin, Ireland",
    "ZipCode": null,
    "Type": "Park",
    "OutDoorOnly": false,
    "Info": "walk, kids, dog, teenagers, amenities, community center, coffee shop, sports fields, pond",
    "Link": null,
    "State": null,
    "Latitude": 53.2738284,
    "Longitude": -6.3428711,
    "Phone": "+353 1 462 0042",
    "Rating": 4.3,
    "GooglePlaceId": "ChIJNdrGiSMLZ0gRtiYTx0VMRDQ",
    "Hours": {
      "Mon-Sun": "00:00 - 23:59"
    }
  },
  {
    "Name": "The Jack Rabbit Bar",
    "Address": "The Jack Rabbit Bar, Carrickduff, Bunclody, Co. Wexford, Y21 XA46, Ireland",
    "ZipCode": "Y21 XA46",
    "Type": "Bar",
    "OutDoorOnly": false,
    "Info": "atmosphere, dog, arlo, food truck, pool table",
    "Link": "https://m.facebook.com/TheJackRabbitBunclody/",
    "State": "Co. Wexford",
    "Latitude": 52.6562067,
    "Longitude": -6.657571,
    "Phone": null,
    "Rating": 4.9,
    "GooglePlaceId": "ChIJ-5X4fuf5Z0gRzdvchRyWG6k",
    "Hours": {
      "Mon-Wed": "Closed",
      "Thu": "16:00 - 23:30",
      "Fri": "16:00 - 00:00",
      "Sat": "13:00 - 00:00",
      "Sun": "13:00 - 23:00"
    }
  },
  {
    "Name": "Lucky's",
    "Address": "78 Meath St, The Liberties, Dublin 8, D08 A318, Ireland",
    "ZipCode": "D08 A318",
    "Type": "Bar",
    "OutDoorOnly": false,
    "Info": "pizza, atmosphere, beer garden, selection, dog, guinness, craft beers, vegan, hipster, crowd",
    "Link": "http://www.luckys.ie/",
    "State": null,
    "Latitude": 53.3415678,
    "Longitude": -6.2784593,
    "Phone": "+353 1 556 2397",
    "Rating": 4.5,
    "GooglePlaceId": "ChIJIYci_CQMZ0gRiHnICMdRXXY",
    "Hours": {
      "Mon-Thu": "16:00 - 00:00",
      "Fri": "16:00 - 01:00",
      "Sat": "13:00 - 01:00",
      "Sun": "13:00 - 23:30"
    }
  },
  {
    "Name": "Notions",
    "Address": "73 Francis St, The Liberties, Dublin, D08 T993, Ireland",
    "ZipCode": "D08 T993",
    "Type": "Restaurant",
    "OutDoorOnly": true,
    "Info": "wine, gnocchi, allergens, small plates, croquettes, selection",
    "Link": null,
    "State": null,
    "Latitude": 53.3394256,
    "Longitude": -6.273485,
    "Phone": null,
    "Rating": 5,
    "GooglePlaceId": "ChIJAV0x2f0NZ0gRHxabZxj2dtM",
    "Hours": {
      "Mon": "Closed",
      "Tue-Thu": "17:00 - 22:00",
      "Fri-Sat": "17:00 - 22:30",
      "Sun": "Closed"
    },
    "Outside": true
  },
  {
    "Name": "The Four Provinces Brew Pub",
    "Address": "25 Ravensdale Park, Kimmage, Co. Dublin, D12 X965, Ireland",
    "ZipCode": "D12 X965",
    "Type": "Irish pub",
    "OutDoorOnly": false,
    "Info": "guinness, brewed, irish music, brewery, live music, craft beers, spirits, area, price, craic",
    "Link": "http://fourprovinces.ie/",
    "State": "Co. Dublin",
    "Latitude": 53.3147616,
    "Longitude": -6.3000432,
    "Phone": "+353 1 441 4956",
    "Rating": 4.6,
    "GooglePlaceId": "ChIJmfRmipINZ0gRydppd13dXDM",
    "Hours": {
      "Mon-Thu": "14:00 - 23:30",
      "Fri-Sat": "12:00 - 00:30",
      "Sun": "12:00 - 23:00"
    },
    "Inside": true,
    "Outside": true
  },
  {
    "Name": "The Harbour Bar",
    "Address": "1 Strand Rd, Bray, Co. Wicklow, A98 D308, Ireland",
    "ZipCode": "A98 D308",
    "Type": "Pub",
    "OutDoorOnly": false,
    "Info": "live music, guinness, fish and chips, great spot, spice, craic, comedy, couches, planet, heaters",
    "Link": "http://www.theharbourbar.ie/",
    "State": "Co. Wicklow",
    "Latitude": 53.2072964,
    "Longitude": -6.1021094,
    "Phone": "+353 1 286 2274",
    "Rating": 4.7,
    "GooglePlaceId": "ChIJweedYGmoZ0gRPKk9t5RYZyQ",
    "Hours": {
      "Mon-Thu": "12:00 - 23:30",
      "Fri-Sat": "12:00 - 00:30",
      "Sun": "12:00 - 23:30"
    }
  },
  {
    "Name": "Olive’s Room",
    "Address": "St Anne's Park, The Red Stables, Clontarf East, Dublin, Ireland",
    "ZipCode": null,
    "Type": "Cafe",
    "OutDoorOnly": false,
    "Info": "park, lunch, dog, takeaway, atmosphere, scones, queue, hot chocolate, brownie, reuben",
    "Link": null,
    "State": null,
    "Latitude": 53.369313,
    "Longitude": -6.1754333,
    "Phone": "+353 1 833 0002",
    "Rating": 4.2,
    "GooglePlaceId": "ChIJQfhfzZoPZ0gR1GG1pgYb7TE",
    "Hours": {
      "Mon-Sun": "09:00 - 18:00"
    }
  },
  {
    "Name": "Mr Beans coffee",
    "Address": "Mr Beans Coffee, 53.265310, -6.211738, Murphystown Rd, Sandyford, Dublin, D18 FD88, Ireland",
    "ZipCode": "D18 FD88",
    "Type": "Coffee shop",
    "OutDoorOnly": false,
    "Info": "drive thru, dog, chat, weather, atmosphere, latte, barista, smile, walking, selection",
    "Link": null,
    "State": null,
    "Latitude": 53.2650994,
    "Longitude": -6.2118647,
    "Phone": null,
    "Rating": 4.8,
    "GooglePlaceId": "ChIJRY8AbF8JZ0gRM3PsjnxcpuY",
    "Hours": {
      "Mon-Fri": "06:30 - 16:00",
      "Sat": "08:00 - 16:00",
      "Sun": "09:00 - 16:00"
    }
  },
  {
    "Name": "St. Anne's Dog Park",
    "Address": "Clontarf East, Dublin, Ireland",
    "ZipCode": null,
    "Type": "Dog park",
    "OutDoorOnly": false,
    "Info": "walk, area, space, socialise, lead, trees, fenced, amenity, water tap, play",
    "Link": null,
    "State": null,
    "Latitude": 53.372917,
    "Longitude": -6.1733983,
    "Phone": null,
    "Rating": 4.6,
    "GooglePlaceId": "ChIJs25ZmI8PZ0gR3jYjp_MAqPQ",
    "Hours": {
      "Mon-Sun": "00:00 - 23:59"
    }
  },
  {
    "Name": "Pet Republic",
    "Address": "Burgundy House, Forster Way, Townparks, Swords, Co. Dublin, Ireland",
    "ZipCode": null,
    "Type": "Pet store",
    "OutDoorOnly": false,
    "Info": "prices, customer service, fish, value, tangible good, cage, dog food, name, parking, choice",
    "Link": "https://petrepublic.ie/",
    "State": "Co. Dublin",
    "Latitude": 53.4570599,
    "Longitude": -6.2201852,
    "Phone": "+353 1 840 1258",
    "Rating": 4.6,
    "GooglePlaceId": "ChIJw2VJNe4QZ0gRo86ybq8_WYE",
    "Hours": {
      "Mon-Sat": "09:30 - 18:00",
      "Sun": "11:00 - 17:00"
    }
  },
  {
    "Name": "River Valley Dog Park",
    "Address": "Windmill Lands, Hilltown, Swords, Co. Dublin, Ireland",
    "ZipCode": null,
    "Type": "Park",
    "OutDoorOnly": false,
    "Info": "dogs, nature",
    "Link": null,
    "State": "Co. Dublin",
    "Latitude": 53.4572503,
    "Longitude": -6.2393516,
    "Phone": null,
    "Rating": 4,
    "GooglePlaceId": "ChIJHxt7RP4RZ0gRmPV_FuZp7zU",
    "Hours": {}
  },
  {
    "Name": "The Tram Cafe Albert College",
    "Address": "Albert Cottages, 5 Hampstead Ave, Whitehall, Dublin 9, Ireland",
    "ZipCode": null,
    "Type": "Coffee shop",
    "OutDoorOnly": false,
    "Info": "park, dog, atmosphere, sausage roll, breakfast roll, cup, latte, music, playing, beef brisket sandwich",
    "Link": "https://www.thetramcafe.ie/",
    "State": null,
    "Latitude": 53.3825258,
    "Longitude": -6.2614533,
    "Phone": null,
    "Rating": 4.3,
    "GooglePlaceId": "ChIJGeBJQHAPZ0gR3eWMPFSSMQk",
    "Hours": {
      "Mon-Sun": "09:00 - 18:00"
    }
  },
  {
    "Name": "Two Fifty Square HQ",
    "Address": "11 Rathfarnham Rd, Terenure, Dublin 6, D6W V327, Ireland",
    "ZipCode": "D6W V327",
    "Type": "Coffee roasters",
    "OutDoorOnly": false,
    "Info": "cash, pastries, flat white, dog, takeaway, people, hot chocolate, matcha lattes, paper cup, queue",
    "Link": "http://www.twofiftysquare.com/",
    "State": null,
    "Latitude": 53.3091614,
    "Longitude": -6.2841003,
    "Phone": "+353 1 490 4953",
    "Rating": 4.2,
    "GooglePlaceId": "ChIJdW2jYEYLZ0gRoye0fK6sbsI",
    "Hours": {
      "Mon-Fri": "07:30 - 20:00",
      "Sat": "07:30 - 19:00",
      "Sun": "08:00 - 19:00"
    }
  },
  {
    "Name": "Tir Deli Hatch Street",
    "Address": "Station Building, Unit 4, The, Hatch Street Upper, Saint Kevin's, Dublin, D02 E104, Ireland",
    "ZipCode": "D02 E104",
    "Type": "Restaurant",
    "OutDoorOnly": false,
    "Info": "breakfast, ingredients, beef sandwich, wagyu, bowl, sambo, sunday roast, halloumi, ham and cheese, sandwich shop",
    "Link": "http://www.tirfood.ie/",
    "State": null,
    "Latitude": 53.333708,
    "Longitude": -6.2622876,
    "Phone": "+353 85 199 3623",
    "Rating": 4.7,
    "GooglePlaceId": "ChIJvb6DoxkPZ0gRpw4TOTeqyVI",
    "Hours": {
      "Mon-Fri": "08:00 - 15:00",
      "Sat-Sun": "Closed"
    }
  },
  {
    "Name": "Parklife Café",
    "Address": "Parklife Cafe, Clogher Rd, Harold's Cross, Dublin, D12 RX06, Ireland",
    "ZipCode": "D12 RX06",
    "Type": "Cafe",
    "OutDoorOnly": false,
    "Info": "dog, pastries, addition, atmosphere, brunch, area, kids, business, caprese, hashbrown",
    "Link": "https://www.instagram.com/parklifecafe",
    "State": null,
    "Latitude": 53.3266446,
    "Longitude": -6.2910817,
    "Phone": null,
    "Rating": 4.8,
    "GooglePlaceId": "ChIJ8cFNQeMNZ0gRECwNBfH8FBg",
    "Hours": {
      "Mon-Sat": "08:00 - 15:30",
      "Sun": "09:00 - 15:00"
    }
  },
  {
    "Name": "Container Coffee",
    "Address": "161 Thomas St, Ushers, Dublin, Ireland",
    "ZipCode": null,
    "Type": "Coffee shop",
    "OutDoorOnly": false,
    "Info": "sausage rolls, latte, snacks, guinness storehouse, weather, vegan, brownies, pear, pies, benches",
    "Link": "http://www.containercoffee.com/",
    "State": null,
    "Latitude": 53.3435555,
    "Longitude": -6.2841648,
    "Phone": null,
    "Rating": 4.6,
    "GooglePlaceId": "ChIJZ4KxkDoMZ0gR0lGl8VUY1Lw",
    "Hours": {
      "Mon": "10:00 - 16:00",
      "Tue-Fri": "08:00 - 16:00",
      "Sat": "09:00 - 16:00",
      "Sun": "10:00 - 16:00"
    }
  },
  {
    "Name": "TEMPORARY Cafe",
    "Address": "Coopers Court, Bond St, The Liberties, Dublin 8, D08 YV8A, Ireland",
    "ZipCode": "D08 YV8A",
    "Type": "Coffee shop",
    "OutDoorOnly": false,
    "Info": "atmosphere, guinness storehouse, customer service, barbers, hot chocolate, chat, toastie, hair salon, cold, choice",
    "Link": "https://www.instagram.com/temporary_cafe/p/DIV-cJmAan1/",
    "State": null,
    "Latitude": 53.3406037,
    "Longitude": -6.2867601,
    "Phone": null,
    "Rating": 4.9,
    "GooglePlaceId": "ChIJ94VZ9owNZ0gRmoIB8GN3c9s",
    "Hours": {
      "Mon": "08:00 - 16:00",
      "Tue": "09:00 - 16:00",
      "Wed-Sat": "08:00 - 16:00",
      "Sun": "09:00 - 16:00"
    },
    "Inside": true,
    "Outside": true
  },
  {
    "Name": "The Bald Eagle Beer & Food co.",
    "Address": "114-115 Phibsborough Rd, Phibsborough, Dublin, D07 VX23, Ireland",
    "ZipCode": "D07 VX23",
    "Type": "Gastropub",
    "OutDoorOnly": false,
    "Info": "guinness, ribs, nachos, sports, gin, irish pub, fajitas, policy, hipster, braised beef",
    "Link": "http://www.thebaldeagle.ie/",
    "State": null,
    "Latitude": 53.3640182,
    "Longitude": -6.2717693,
    "Phone": "+353 1 860 3227",
    "Rating": 4.5,
    "GooglePlaceId": "ChIJXXPYfHgOZ0gRtG-HjQxtlL0",
    "Hours": {
      "Mon-Wed": "12:00 - 00:00",
      "Thu": "12:00 - 01:00",
      "Fri": "12:00 - 01:30",
      "Sat": "10:00 - 01:30",
      "Sun": "10:00 - 00:00"
    }
  },
  {
    "Name": "Two Pups",
    "Address": "74 Francis St, The Liberties, Dublin 8, D08 KA43, Ireland",
    "ZipCode": "D08 KA43",
    "Type": "Restaurant",
    "OutDoorOnly": false,
    "Info": "brunch, pastries, french toast, avocado on toast, granola, turkish eggs, shakshuka, mexican eggs, egg and avocado toast, miso mushroom",
    "Link": "http://www.twopupscoffee.com/",
    "State": null,
    "Latitude": 53.3393555,
    "Longitude": -6.2734203,
    "Phone": null,
    "Rating": 4.6,
    "GooglePlaceId": "ChIJJ5dJUyEMZ0gRCZJOSDU49XA",
    "Hours": {
      "Mon": "08:30 - 15:30",
      "Tue-Wed": "08:30 - 15:30, 17:00 - 22:30",
      "Thu-Fri": "08:30 - 15:30, 17:00 - 23:30",
      "Sat": "09:00 - 15:30, 17:00 - 23:30",
      "Sun": "09:00 - 15:30"
    }
  },
  {
    "Name": "Gourmet Greystones",
    "Address": "Watson & Johnson Centre, Mill Rd, Killincarrig, Greystones, Co. Wicklow, Ireland",
    "ZipCode": null,
    "Type": "Restaurant",
    "OutDoorOnly": false,
    "Info": "coffee, prices, dog, atmosphere, lunch, customer service, sausage, hot chocolate, morning, panini",
    "Link": "https://m.facebook.com/gourmetgreystonescoffee/",
    "State": "Co. Wicklow",
    "Latitude": 53.1434059,
    "Longitude": -6.0604542,
    "Phone": "+353 1 287 4463",
    "Rating": 4.5,
    "GooglePlaceId": "ChIJK8IPPymvZ0gR1F4NJ6cqfVs",
    "Hours": {
      "Mon-Fri": "06:00 - 18:00",
      "Sat-Sun": "07:00 - 18:00"
    }
  },
  {
    "Name": "The Window Box",
    "Address": "21 Main St, Rathfarnham, Dublin, D14 X9H7, Ireland",
    "ZipCode": "D14 X9H7",
    "Type": "Restaurant",
    "OutDoorOnly": false,
    "Info": "coffee, village, pancakes, gem, atmosphere, brunch, pulled pork, sausage, bacon, business",
    "Link": "http://www.thewindowbox.ie/",
    "State": null,
    "Latitude": 53.2986153,
    "Longitude": -6.2857989,
    "Phone": "+353 1 406 3156",
    "Rating": 4.7,
    "GooglePlaceId": "ChIJIw7aoPYLZ0gRaz_VZz2V4Cg",
    "Hours": {
      "Mon-Fri": "08:00 - 16:00",
      "Sat": "09:00 - 16:00",
      "Sun": "10:00 - 16:00"
    },
    "Inside": true,
    "Outside": true
  },
  {
    "Name": "Bridge Inn Dungloe",
    "Address": "Lower Main St, Dunglow, Dungloe, Co. Donegal, Ireland",
    "ZipCode": null,
    "Type": "Bar & grill",
    "OutDoorOnly": false,
    "Info": "pub, atmosphere, dog, apartments, place to stay, guinness, rooms, fish and chips, evening, beds",
    "Link": "https://bridgeinndungloe.com/",
    "State": "Co. Donegal",
    "Latitude": 54.9505295,
    "Longitude": -8.3610802,
    "Phone": "+353 87 717 9097",
    "Rating": 4.6,
    "GooglePlaceId": "ChIJYztG8E9xX0gRQkb4E8knPUU",
    "Hours": {
      "Mon-Thu": "12:00 - 00:00",
      "Fri-Sat": "12:00 - 01:00",
      "Sun": "12:00 - 00:00"
    }
  },
  {
    "Name": "Dog Park - Marlay Park",
    "Address": "Marlay Park House, Grange Rd, Rathfarnham, Dublin 16, Ireland",
    "ZipCode": null,
    "Type": "Dog park",
    "OutDoorOnly": false,
    "Info": "lead, tap, gate, play, walk, bowls, type of dog, coffee, golf, mud",
    "Link": null,
    "State": null,
    "Latitude": 53.2709011,
    "Longitude": -6.2636195,
    "Phone": null,
    "Rating": 4.4,
    "GooglePlaceId": "ChIJBSiuvNILZ0gR0FCbTJIX_7E",
    "Hours": {
      "Mon-Sun": "09:00 - 20:00"
    }
  },
  {
    "Name": "Adies bar & restaurant",
    "Address": "Main St, Lanesborough, Co. Longford, Ireland",
    "ZipCode": null,
    "Type": "Gastropub",
    "OutDoorOnly": false,
    "Info": "prices, lunch, atmosphere, steak, the visit, lasagne, dog, tourists",
    "Link": null,
    "State": "Co. Longford",
    "Latitude": 53.6720924,
    "Longitude": -7.988379,
    "Phone": "+353 43 332 1322",
    "Rating": 4.6,
    "GooglePlaceId": "ChIJAZJl_3UvXEgR10-lavXYWqE",
    "Hours": {
      "Mon": "17:00 - 23:30",
      "Tue": "12:00 - 23:30",
      "Wed": "12:00 - 00:00",
      "Thu": "12:00 - 23:30",
      "Fri-Sat": "12:00 - 12:30",
      "Sun": "12:30 - 23:00"
    }
  },
  {
    "Name": "Dog Run Park Griffeen Valley",
    "Address": "10-, 24 Johnsbridge Park, Lucan, Co. Dublin, Ireland",
    "ZipCode": null,
    "Type": "Dog park",
    "OutDoorOnly": false,
    "Info": "gate, bins, benches, clean, playground, council, size, bags, running",
    "Link": null,
    "State": "Co. Dublin",
    "Latitude": 53.3425947,
    "Longitude": -6.4409357,
    "Phone": null,
    "Rating": 4.3,
    "GooglePlaceId": "ChIJE7MZyKtzZ0gR7uD_N7OdYn0",
    "Hours": {
      "Mon-Sun": "00:00 - 23:59"
    }
  },
  {
    "Name": "Ruff Café",
    "Address": "Mount Venus Rd, Rathfarnham, Dublin 16, D16 F9C4, Ireland",
    "ZipCode": "D16 F9C4",
    "Type": "Cafe",
    "OutDoorOnly": false,
    "Info": "dog, ciabatta, carrot cake, vegan, salads, environment, furry, cupcakes, photo, luck",
    "Link": null,
    "State": null,
    "Latitude": 53.261164,
    "Longitude": -6.3100415,
    "Phone": "+353 1 567 4840",
    "Rating": 5,
    "GooglePlaceId": "ChIJx08e1JANZ0gRy5hAi8vBg88",
    "Hours": {
      "Mon": "Closed",
      "Tue-Fri": "10:00 - 16:00",
      "Sat-Sun": "10:00 - 17:00"
    }
  },
  {
    "Name": "Gannons Bar",
    "Address": "Main street, Creggs, Galway, F42 K802, Ireland",
    "ZipCode": "F42 K802",
    "Type": "Bar",
    "OutDoorOnly": false,
    "Info": "dog",
    "Link": null,
    "State": null,
    "Latitude": 53.5938416,
    "Longitude": -8.3622734,
    "Phone": "+353 85 769 3030",
    "Rating": 4.7,
    "GooglePlaceId": "ChIJF73nRiYXXEgRqLYp24tV1us",
    "Hours": {
      "Mon": "10:00 - 23:30",
      "Tue-Wed": "17:00 - 23:30",
      "Thu": "10:00 - 23:30",
      "Fri": "10:00 - 00:30",
      "Sat-Sun": "10:00 - 23:00"
    }
  },
  {
    "Name": "Tymon Dog Park",
    "Address": "Kilnamanagh, Dublin, Ireland",
    "ZipCode": null,
    "Type": "Dog park",
    "OutDoorOnly": false,
    "Info": "wellies, space",
    "Link": null,
    "State": null,
    "Latitude": 53.3054287,
    "Longitude": -6.3434045,
    "Phone": null,
    "Rating": 4.4,
    "GooglePlaceId": "ChIJzcuVk3wLZ0gRCamgEXavXW8",
    "Hours": {
      "Mon-Sun": "00:00 - 23:59"
    }
  },
  {
    "Name": "Melo Castleknock",
    "Address": "Unit 4, Lidl Neighbourhood Centre, Castleknock, Dublin, D15 K76X, Ireland",
    "ZipCode": "D15 K76X",
    "Type": "Coffee shop",
    "OutDoorOnly": false,
    "Info": "pastries, sandwich, addition, choice, acai bowl, village, protein balls, almond croissant, heart, granola",
    "Link": null,
    "State": null,
    "Latitude": 53.3734623,
    "Longitude": -6.3620556,
    "Phone": null,
    "Rating": 4.7,
    "GooglePlaceId": "ChIJsfiBhO8NZ0gRig5Gez02yqU",
    "Hours": {
      "Mon": "08:00 - 16:30",
      "Tue-Fri": "07:00 - 16:30",
      "Sat-Sun": "08:00 - 16:30"
    },
    "Inside": true,
    "Outside": true
  },
  {
    "Name": "Carysfort Park",
    "Address": "Carysfort, Dublin, Ireland",
    "ZipCode": null,
    "Type": "Park",
    "OutDoorOnly": false,
    "Info": "pond, ducks, dog walkers, running",
    "Link": "http://www.dlrcoco.ie/",
    "State": null,
    "Latitude": 53.2941111,
    "Longitude": -6.1834975,
    "Phone": null,
    "Rating": 4.5,
    "GooglePlaceId": "ChIJiThCNugIZ0gRxDqpZmapU1M",
    "Hours": {
      "Mon-Sun": "00:00 - 23:59"
    }
  },
  {
    "Name": "Kennedy's Food Store Raheny",
    "Address": "Hilltop, Unit 3/4, Raheny Rd, Dublin 5, D05 Y3C7, Ireland",
    "ZipCode": "D05 Y3C7",
    "Type": "Cafe",
    "OutDoorOnly": false,
    "Info": "sandwich, quality, atmosphere, scones, brunch, cash, cappuccino, table, takeaway, parking",
    "Link": "https://kennedysfoodstore.com/locations/raheny/",
    "State": null,
    "Latitude": 53.3857917,
    "Longitude": -6.1744461,
    "Phone": "+353 1 851 3000",
    "Rating": 4.3,
    "GooglePlaceId": "ChIJmfgApfMPZ0gRQs3fTmaSYYo",
    "Hours": {
      "Mon-Fri": "08:30 - 16:30",
      "Sat": "09:00 - 16:30",
      "Sun": "09:30 - 15:30"
    }
  },
  {
    "Name": "Pearse Square Park",
    "Address": "Grand Canal Dock, Dublin, Ireland",
    "ZipCode": null,
    "Type": "Park",
    "OutDoorOnly": false,
    "Info": "dog, lunch, walk, sit, library, heart",
    "Link": null,
    "State": null,
    "Latitude": 53.3435549,
    "Longitude": -6.24213,
    "Phone": null,
    "Rating": 4.4,
    "GooglePlaceId": "ChIJgdnBG5MOZ0gRwvayKuP0FvI",
    "Hours": {
      "Mon": "10:00 - 19:30",
      "Tue": "10:00 - 18:30",
      "Wed-Sun": "10:00 - 19:30"
    }
  },
  {
    "Name": "Rumi Cafe Francis Street",
    "Address": "28 Francis St, The Liberties, Dublin, D08 PF61, Ireland",
    "ZipCode": "D08 PF61",
    "Type": "Cafe",
    "OutDoorOnly": false,
    "Info": "pastries, turkish delight, baklava, panini, muffin, borek, turkish tea, cinnamon buns, liberties, pogaca",
    "Link": null,
    "State": null,
    "Latitude": 53.3418604,
    "Longitude": -6.2749904,
    "Phone": null,
    "Rating": 4.9,
    "GooglePlaceId": "ChIJLUld51sNZ0gRFGcmHxtD_fk",
    "Hours": {
      "Mon-Sat": "07:00 - 19:00",
      "Sun": "08:00 - 18:00"
    },
    "Inside": true,
    "Outside": true
  },
  {
    "Name": "Pizza Dog - Swords",
    "Address": "South Quarter, Airside Retail Park, Swords, Co. Dublin, K67 X0K8, Ireland",
    "ZipCode": "K67 X0K8",
    "Type": "Restaurant",
    "OutDoorOnly": false,
    "Info": "delivery, hot dogs, milkshake, takeaway, service, order, money, wings, area, dough",
    "Link": "https://www.pizzadog.ie/?utm_source=GBP.website&utm_medium=GBP&utm_campaign=pizzadog-website",
    "State": "Co. Dublin",
    "Latitude": 53.4453482,
    "Longitude": -6.2236355,
    "Phone": "+353 1 890 7000",
    "Rating": 4.1,
    "GooglePlaceId": "ChIJlc6CnPcQZ0gRbU7snPQops4",
    "Hours": {
      "Mon-Thu": "11:00 - 02:30",
      "Fri-Sat": "11:00 - 03:00",
      "Sun": "11:00 - 02:30"
    },
    "Inside": true,
    "Outside": true
  },
  {
    "Name": "Nancy Hands Bar & Restaurant",
    "Address": "30-32 Parkgate St, Stoneybatter, Dublin 8, D08 W6X3, Ireland",
    "ZipCode": "D08 W6X3",
    "Type": "Irish restaurant",
    "OutDoorOnly": false,
    "Info": "guinness, irish pub, fish and chips, bus, bartender, phoenix park, traditional irish music, sticky toffee pudding, bangers and mash, zoo",
    "Link": "http://www.nancyhands.ie/",
    "State": null,
    "Latitude": 53.3482267,
    "Longitude": -6.2939767,
    "Phone": "+353 1 677 0149",
    "Rating": 4.3,
    "GooglePlaceId": "ChIJ0WPWYzYMZ0gROVdf2UYMizc",
    "Hours": {
      "Mon-Thu": "12:00 - 23:30",
      "Fri-Sat": "12:00 - 00:30",
      "Sun": "12:00 - 23:00"
    }
  },
  {
    "Name": "Graft Coffee",
    "Address": "Block 1, Deansgrange Business Park, Kill Of The Grange, Blackrock, Co. Dublin, A94 KC04, Ireland",
    "ZipCode": "A94 KC04",
    "Type": "Coffee shop",
    "OutDoorOnly": false,
    "Info": "pastries, flat white, dog, service, atmosphere, beans, area, great spot, sound, NCT",
    "Link": null,
    "State": "Co. Dublin",
    "Latitude": 53.2789303,
    "Longitude": -6.1616848,
    "Phone": null,
    "Rating": 4.9,
    "GooglePlaceId": "ChIJt407wlcJZ0gRYNh5S28NcwQ",
    "Hours": {
      "Mon": "10:00 - 14:00",
      "Tue-Fri": "07:00 - 16:00",
      "Sat": "08:00 - 14:00",
      "Sun": "Closed"
    }
  },
  {
    "Name": "Orby’s by Lucy",
    "Address": "The Curragh Racecourse, Orby’s by Lucy, Newbridge, Co. Kildare, R56 RR67, Ireland",
    "ZipCode": "R56 RR67",
    "Type": "Restaurant",
    "OutDoorOnly": false,
    "Info": "dog, cafe, atmosphere, selection, brunch, priced, christmas, caesar salad, racetrack, equestrian",
    "Link": "http://www.orbybylucy.ie/",
    "State": "Co. Kildare",
    "Latitude": 53.1678793,
    "Longitude": -6.8423456,
    "Phone": "+353 85 167 0826",
    "Rating": 4.5,
    "GooglePlaceId": "ChIJD_PmdqR_XUgRQZjq08PZI40",
    "Hours": {
      "Mon-Sat": "09:00 - 17:00",
      "Sun": "10:00 - 17:00"
    }
  },
  {
    "Name": "sundays - speciality coffee & toasties",
    "Address": "Strand Rd, Burrow, Portmarnock, Co. Dublin, D13 T1H3, Ireland",
    "ZipCode": "D13 T1H3",
    "Type": "Cafe",
    "OutDoorOnly": false,
    "Info": "pastries, dog, atmosphere, flat white, music, door",
    "Link": null,
    "State": "Co. Dublin",
    "Latitude": 53.4223941,
    "Longitude": -6.1354707,
    "Phone": null,
    "Rating": 4.8,
    "GooglePlaceId": "ChIJsTTNhPEbZ0gRhSGp9mQaVks",
    "Hours": {
      "Mon-Fri": "08:00 - 16:00",
      "Sat": "08:30 - 16:00",
      "Sun": "09:00 - 16:00"
    }
  },
  {
    "Name": "The Boat House Coffee Dock Bray",
    "Address": "Strand Rd, Bray, Co. Wicklow, Ireland",
    "ZipCode": null,
    "Type": "Coffee shop",
    "OutDoorOnly": false,
    "Info": "price, beach, walk, toastie, value, lunch, takeaway, wraps, crisps, panini",
    "Link": "https://www.facebook.com/Thecoffeedockbray/",
    "State": "Co. Wicklow",
    "Latitude": 53.1979681,
    "Longitude": -6.0943789,
    "Phone": "+353 85 816 1154",
    "Rating": 4.2,
    "GooglePlaceId": "ChIJG6fu8F2oZ0gRPBkabSnZhK4",
    "Hours": {
      "Mon-Sun": "09:00 - 18:00"
    }
  },
  {
    "Name": "Big Mike’s Blackrock",
    "Address": "Rock Hill, Blackrock, Dublin, A94 C2N7, Ireland",
    "ZipCode": "A94 C2N7",
    "Type": "Cocktail bar",
    "OutDoorOnly": false,
    "Info": "seafood, surf and turf, platter, dessert, starters, food and service, wine list, prawns, arancini, butter",
    "Link": "https://michaels.ie/big-mikes/",
    "State": null,
    "Latitude": 53.3021454,
    "Longitude": -6.1805076,
    "Phone": "+353 1 551 0332",
    "Rating": 4.6,
    "GooglePlaceId": "ChIJl8RZPEoJZ0gRfAevunxeI1Q",
    "Hours": {
      "Mon-Tue": "Closed",
      "Wed": "16:00 - 23:00",
      "Thu": "16:00 - 23:30",
      "Fri-Sat": "12:00 - 01:00",
      "Sun": "13:00 - 23:00"
    }
  },
  {
    "Name": "Bear Market Coffee - Blackrock",
    "Address": "19 Main St, Blackrock, Co. Dublin, A94 X8W7, Ireland",
    "ZipCode": "A94 X8W7",
    "Type": "Coffee shop",
    "OutDoorOnly": false,
    "Info": "pastries, matcha, garden, flat white, dog, hot chocolate, cash, mocha, patio, almond croissants",
    "Link": "https://www.bearmarket.ie/pages/blackrock-coffee-shop?utm_source=google&utm_medium=organic&utm_campaign=gmb-listing",
    "State": "Co. Dublin",
    "Latitude": 53.3014352,
    "Longitude": -6.1776531,
    "Phone": null,
    "Rating": 4.5,
    "GooglePlaceId": "ChIJ68Tf1cYIZ0gRwmtdGO4-_uc",
    "Hours": {
      "Mon-Fri": "07:30 - 17:00",
      "Sat": "08:00 - 17:00",
      "Sun": "09:00 - 17:00"
    }
  },
  {
    "Name": "Shake Dog",
    "Address": "Unit 22/23 Crescent Shopping Centre, Dooradoyle Rd, Limerick, Ireland",
    "ZipCode": null,
    "Type": "Restaurant",
    "OutDoorOnly": false,
    "Info": "milkshake, kids, service, bacon, hotdogs, onion rings, mall, cold, music, table",
    "Link": "https://www.shakedog.ie/",
    "State": null,
    "Latitude": 52.6401678,
    "Longitude": -8.6448348,
    "Phone": "+353 61 308 704",
    "Rating": 4.4,
    "GooglePlaceId": "ChIJI-hxSGNbW0gRQPIpx1AI0L0",
    "Hours": {
      "Mon-Wed": "10:00 - 20:00",
      "Thu-Fri": "10:00 - 21:30",
      "Sat": "10:00 - 20:30",
      "Sun": "11:00 - 20:00"
    }
  },
  {
    "Name": "Griffeen Valley Park",
    "Address": "Esker South, Lucan, Co. Dublin, Ireland",
    "ZipCode": null,
    "Type": "Park",
    "OutDoorOnly": false,
    "Info": "kids, walk, running, pitches, football, litter, bridges, stream, amenities, green space",
    "Link": "https://www.sdcc.ie/en/services/sport-and-recreation/parks/griffeen-valley-park.html",
    "State": "Co. Dublin",
    "Latitude": 53.3433873,
    "Longitude": -6.4394556,
    "Phone": null,
    "Rating": 4.5,
    "GooglePlaceId": "ChIJ0RBnuqtzZ0gRaG8RYVCC9Ws",
    "Hours": {
      "Mon-Sun": "00:00 - 23:59"
    }
  },
  {
    "Name": "St. Catherine's Park",
    "Address": "St. Catherine's Park, Lucan, Co. Dublin, Ireland",
    "ZipCode": null,
    "Type": "Park",
    "OutDoorOnly": false,
    "Info": "toilets, market, amenity, BMX, dog walking, adults, maze, ice cream van, stalls, walkways",
    "Link": "https://www.fingal.ie/directory/amenities/parks/st-catherines-park",
    "State": "Co. Dublin",
    "Latitude": 53.3673849,
    "Longitude": -6.4644251,
    "Phone": "+353 1 890 4599",
    "Rating": 4.7,
    "GooglePlaceId": "ChIJB_I7CWpyZ0gR6HngupaQISM",
    "Hours": {
      "Mon-Sun": "09:00 - 21:00"
    }
  },
  {
    "Name": "Fernhill Park Dog Run",
    "Address": "7Q4C+PF, Newtown Little, Dublin, Ireland",
    "ZipCode": null,
    "Type": "Park",
    "OutDoorOnly": false,
    "Info": "dog runs, space",
    "Link": null,
    "State": null,
    "Latitude": 53.2567709,
    "Longitude": -6.2287559,
    "Phone": null,
    "Rating": 4.6,
    "GooglePlaceId": "ChIJZZ7eAE4JZ0gRi8Q6Xkrc7jU",
    "Hours": {}
  },
  {
    "Name": "Johnnie Fox's Pub",
    "Address": "Glencullen, Co. Dublin, Ireland",
    "ZipCode": null,
    "Type": "Irish pub",
    "OutDoorOnly": true,
    "Info": "irish dancing, museum, lamb shank, beef and guinness pie, tourist attraction, fish pie, seafood chowder, picturesque, irish history, foxes",
    "Link": "http://www.johnniefoxs.com/",
    "State": "Co. Dublin",
    "Latitude": 53.2217107,
    "Longitude": -6.2191994,
    "Phone": "+353 1 295 5647",
    "Rating": 4.6,
    "GooglePlaceId": "ChIJBTi2ilunZ0gRsAZwFLLv7gA",
    "Hours": {
      "Mon-Thu": "10:30 - 23:30",
      "Fri-Sat": "10:30 - 00:30",
      "Sun": "11:00 - 23:00"
    },
    "Outside": true
  },
  {
    "Name": "The Canvas Café",
    "Address": "2 Clarendon Ct, Kill West, Kill, Co. Kildare, W91 FK40, Ireland",
    "ZipCode": "W91 FK40",
    "Type": "Cafe",
    "OutDoorOnly": true,
    "Info": "pizza, take away, atmosphere, food and service, gem, french toast, bacon, soup, hash, sausage",
    "Link": "https://www.facebook.com/TheCanvasCafeKill/",
    "State": "Co. Kildare",
    "Latitude": 53.247201,
    "Longitude": -6.5934056,
    "Phone": "+353 45 842 587",
    "Rating": 4.8,
    "GooglePlaceId": "ChIJow--Myx4Z0gRYQOXawejtDQ",
    "Hours": {
      "Mon": "10:00 - 16:30",
      "Tue-Wed": "09:00 - 16:30",
      "Thu-Fri": "09:00 - 21:00",
      "Sat": "10:00 - 21:00",
      "Sun": "10:00 - 16:30"
    },
    "Outside": true
  },
  {
    "Name": "Bunting Park",
    "Address": "Walkinstown, Dublin, Ireland",
    "ZipCode": null,
    "Type": "Park",
    "OutDoorOnly": false,
    "Info": "dog, outdoor gym, running, gym equipment, benches, picnic, kids",
    "Link": null,
    "State": null,
    "Latitude": 53.3207695,
    "Longitude": -6.3232789,
    "Phone": null,
    "Rating": 4.4,
    "GooglePlaceId": "ChIJLVgD-dkNZ0gR9WQ4UZD612s",
    "Hours": {
      "Mon-Sun": "00:00 - 23:59"
    }
  },
  {
    "Name": "Brew Coffee",
    "Address": "63 St Assam's Park, Raheny, Dublin 5, D05 HT21, Ireland",
    "ZipCode": "D05 HT21",
    "Type": "Coffee shop",
    "OutDoorOnly": false,
    "Info": "pastries, dog, sausage rolls, flat white, cappuccino, temperature, hot chocolate, coconut milk, area",
    "Link": "http://www.brewcoffee.ie/",
    "State": null,
    "Latitude": 53.3810534,
    "Longitude": -6.1654285,
    "Phone": null,
    "Rating": 4.8,
    "GooglePlaceId": "ChIJMe2rahQPZ0gRC3-K7mI0K9o",
    "Hours": {
      "Mon-Wed": "08:00 - 16:00",
      "Thu-Fri": "08:00 - 20:00",
      "Sat": "09:00 - 20:00",
      "Sun": "09:00 - 16:00"
    }
  },
  {
    "Name": "Barley House Cafe",
    "Address": "Barley HALL, 90-97 Cork St, The Liberties, Dublin, D08, Dublin, D08 N5PE, Ireland",
    "ZipCode": "D08 N5PE",
    "Type": "Coffee shop",
    "OutDoorOnly": false,
    "Info": "sandwiches, atmosphere, cappuccino, coxinha, açaí bowl, environment, prices",
    "Link": "https://www.instagram.com/barleyhousecafe/",
    "State": null,
    "Latitude": 53.3377166,
    "Longitude": -6.2863805,
    "Phone": "+353 83 872 1399",
    "Rating": 4.4,
    "GooglePlaceId": "ChIJQ1bigSANZ0gR6h3ORj5iouY",
    "Hours": {
      "Mon-Sun": "08:00 - 16:00"
    },
    "Inside": true,
    "Outside": true
  },
  {
    "Name": "The Foxhunter",
    "Address": "The Foxhunter, Ballydowd, Lucan, Co. Dublin, Ireland",
    "ZipCode": null,
    "Type": "Pub",
    "OutDoorOnly": false,
    "Info": "burger, atmosphere, prices, room, family, guinness, play area, evening, renovation, sunday",
    "Link": "https://foxhunter.ie/",
    "State": "Co. Dublin",
    "Latitude": 53.3587376,
    "Longitude": -6.4188221,
    "Phone": "+353 1 224 3437",
    "Rating": 4.1,
    "GooglePlaceId": "ChIJU3N2twBzZ0gR998VjwuIAOQ",
    "Hours": {
      "Mon": "12:00 - 23:30",
      "Tue-Thu": "15:00 - 23:30",
      "Fri-Sat": "12:00 - 00:30",
      "Sun": "12:00 - 23:00"
    }
  },
  {
    "Name": "Coffee Works Lucan",
    "Address": "Main St, Lucan And Pettycanon, Lucan, Co. Dublin, Ireland",
    "ZipCode": null,
    "Type": "Cafe",
    "OutDoorOnly": false,
    "Info": "pastries, sandwiches, atmosphere, take away, latte, village, vegan, barista, flat white, beans",
    "Link": "http://www.coffeeworks.ie/",
    "State": "Co. Dublin",
    "Latitude": 53.3573814,
    "Longitude": -6.4496548,
    "Phone": null,
    "Rating": 4.6,
    "GooglePlaceId": "ChIJBd1bd1pyZ0gRqJ8aDk5xtI0",
    "Hours": {
      "Mon": "08:00 - 16:00",
      "Tue-Fri": "07:30 - 17:00",
      "Sat-Sun": "08:00 - 16:00"
    },
    "Inside": true,
    "Outside": true
  },
  {
    "Name": "Barr na Sráide Gastropub",
    "Address": "Main Street, Cloonbur, Clonbur, Co. Galway, F12 KF22, Ireland",
    "ZipCode": "F12 KF22",
    "Type": "Restaurant",
    "OutDoorOnly": false,
    "Info": "atmosphere, fish and chips, price, hotel, seafood chowder, irish pub, dog, wings, whiskey, onion rings",
    "Link": "http://www.fairhillhouse.com/",
    "State": "Co. Galway",
    "Latitude": 53.5445632,
    "Longitude": -9.364659,
    "Phone": "+353 94 954 6176",
    "Rating": 4.6,
    "GooglePlaceId": "ChIJgVEKIEvbW0gRJF9i6vP-sd8",
    "Hours": {
      "Mon-Thu": "12:00 - 23:30",
      "Fri": "12:00 - 00:30",
      "Sat": "10:00 - 00:30",
      "Sun": "10:00 - 23:30"
    },
    "Inside": true,
    "Outside": true
  },
  {
    "Name": "Nick's Coffee",
    "Address": "Main St, Corporation Lands, Wicklow, Ireland",
    "ZipCode": null,
    "Type": "Coffee shop",
    "OutDoorOnly": false,
    "Info": "pastries, prices, atmosphere, sausage rolls, dog, cinnamon buns, baristas, savoury, caramel, almond",
    "Link": null,
    "State": null,
    "Latitude": 52.9803124,
    "Longitude": -6.0410388,
    "Phone": "+353 86 383 8203",
    "Rating": 4.8,
    "GooglePlaceId": "ChIJaT-QbMuwZ0gR-QvbuYP4FXk",
    "Hours": {
      "Mon-Sat": "06:30 - 18:00",
      "Sun": "07:30 - 18:00"
    }
  },
  {
    "Name": "Catalyst Cafe - Florence Villas",
    "Address": "Florence Villas, 2 Florence Rd, Bray, Co. Wicklow, A98 YY84, Ireland",
    "ZipCode": "A98 YY84",
    "Type": "Coffee shop",
    "OutDoorOnly": false,
    "Info": "vegan, mushrooms on toast, veggie, beach, latte, prices, flat white, ethos, sustainable products, french toast",
    "Link": "http://www.thecatalyst.ie/",
    "State": "Co. Wicklow",
    "Latitude": 53.203599,
    "Longitude": -6.1072089,
    "Phone": "+353 83 107 3137",
    "Rating": 4.7,
    "GooglePlaceId": "ChIJ-66j8XapZ0gRYOKa1oFQJVI",
    "Hours": {
      "Mon-Sat": "08:00 - 15:30",
      "Sun": "09:00 - 15:00"
    },
    "Inside": true
  },
  {
    "Name": "The Tram Cafe Airlie Park",
    "Address": "Airlie Pk Rd, Finnstown, Dublin, Ireland",
    "ZipCode": null,
    "Type": "Coffee shop",
    "OutDoorOnly": false,
    "Info": "atmosphere, dog, prices, cappuccino, customer service, kids, breakfast roll, heart, sausage roll, ham",
    "Link": "https://www.thetramcafe.ie/",
    "State": null,
    "Latitude": 53.3434608,
    "Longitude": -6.4691371,
    "Phone": null,
    "Rating": 4.7,
    "GooglePlaceId": "ChIJfT40OABzZ0gR9DeJioHJcHQ",
    "Hours": {
      "Mon-Sat": "09:00 - 17:30",
      "Sun": "10:00 - 17:30"
    }
  },
  {
    "Name": "Denny's Ferry Bar",
    "Address": "Rosdoagh, Ross Port, Co. Mayo, F26 R8W8, Ireland",
    "ZipCode": "F26 R8W8",
    "Type": "Bar",
    "OutDoorOnly": false,
    "Info": "camper, guinness, atmosphere, pizza, traditional irish music, dog",
    "Link": "https://www.facebook.com/DennysFerryBar/",
    "State": "Co. Mayo",
    "Latitude": 54.2857529,
    "Longitude": -9.8013653,
    "Phone": null,
    "Rating": 4.8,
    "GooglePlaceId": "ChIJfdNGUG4EWUgRmb-JGugsUAY",
    "Hours": {
      "Mon-Tue": "18:00 - 23:00",
      "Wed-Thu": "Closed",
      "Fri-Sat": "18:00 - 00:30",
      "Sun": "13:30 - 23:00"
    }
  },
  {
    "Name": "Kabo Coffee",
    "Address": "Letterfrack, Co. Galway, H91 FD28, Ireland",
    "ZipCode": "H91 FD28",
    "Type": "Coffee shop",
    "OutDoorOnly": false,
    "Info": "gluten free, salad, lunch, gift shop, trekking, craft, flat white, breakfast bap, national park, fish chowder",
    "Link": null,
    "State": "Co. Galway",
    "Latitude": 53.553385,
    "Longitude": -9.9489299,
    "Phone": "+353 86 067 7154",
    "Rating": 4.8,
    "GooglePlaceId": "ChIJrXuFxj0lWkgRUYQlErH1Zz8",
    "Hours": {
      "Mon-Wed": "08:00 - 18:00",
      "Thu": "08:30 - 17:30",
      "Fri-Sun": "08:00 - 18:00"
    }
  },
  {
    "Name": "Eddie Rocket's",
    "Address": "Unit 1, Citywest Shopping Centre, Citywest Rd, Citywest Business Campus, Dublin, D24 TD81, Ireland",
    "ZipCode": "D24 TD81",
    "Type": "Diner",
    "OutDoorOnly": false,
    "Info": "milkshakes, pay, quick service, music, chicken wings, cheese fries, hotdog, chicken tenders, basket, pockets",
    "Link": "http://www.eddierockets.ie/",
    "State": null,
    "Latitude": 53.2829995,
    "Longitude": -6.4219131,
    "Phone": "+353 1 413 3800",
    "Rating": 4.1,
    "GooglePlaceId": "ChIJ1eyBz_Z0Z0gRG3RRpNcsplQ",
    "Hours": {
      "Mon-Thu": "12:30 - 20:30",
      "Fri-Sat": "12:30 - 21:00",
      "Sun": "12:30 - 20:30"
    }
  },
  {
    "Name": "Brother Bean Coffee Co.",
    "Address": "16 Newtown Park, Stillorgan Park, Blackrock, Co. Dublin, A94 E049, Ireland",
    "ZipCode": "A94 E049",
    "Type": "Coffee shop",
    "OutDoorOnly": false,
    "Info": "dog, coffee machine, takeaway",
    "Link": "http://brotherbeancoffee.com/",
    "State": "Co. Dublin",
    "Latitude": 53.287547,
    "Longitude": -6.1772346,
    "Phone": "+353 87 604 2496",
    "Rating": 4.6,
    "GooglePlaceId": "ChIJB3kOXQAJZ0gRyxefTTsxBRI",
    "Hours": {
      "Mon-Fri": "08:00 - 15:30",
      "Sat": "09:00 - 15:30",
      "Sun": "10:00 - 14:30"
    },
    "Inside": true,
    "Outside": true
  },
  {
    "Name": "Morilles Coffee @The Kiosk",
    "Address": "116b Orwell Rd, Dublin 6, D06 YP93, Ireland",
    "ZipCode": "D06 YP93",
    "Type": "Coffee shop",
    "OutDoorOnly": false,
    "Info": "dog, pastries, addition, customer service, toastie, air conditioning",
    "Link": "http://morillescoffee.ie/",
    "State": null,
    "Latitude": 53.3059078,
    "Longitude": -6.2672527,
    "Phone": null,
    "Rating": 4.7,
    "GooglePlaceId": "ChIJFfcmeAALZ0gRZoVUEuIrFhA",
    "Hours": {
      "Mon-Sat": "07:00 - 18:00",
      "Sun": "08:00 - 18:00"
    }
  },
  {
    "Name": "Cabinteely Dog Park",
    "Address": "Bray Rd, Cabinteely, Dún Laoghaire, Co. Dublin, Ireland",
    "ZipCode": null,
    "Type": "Dog park",
    "OutDoorOnly": false,
    "Info": "",
    "Link": null,
    "State": "Co. Dublin",
    "Latitude": 53.2601301,
    "Longitude": -6.1563836,
    "Phone": null,
    "Rating": 4.3,
    "GooglePlaceId": "ChIJ9aDnnG8JZ0gRsVFxzynXcKo",
    "Hours": {
      "Mon-Tue": "00:00 - 23:59",
      "Wed": "08:00 - 00:00",
      "Thu": "00:00 - 23:59",
      "Fri": "08:00 - 00:00",
      "Sat": "00:00 - 23:59",
      "Sun": "08:00 - 00:00"
    }
  },
  {
    "Name": "Old Royal Oak",
    "Address": "11 Kilmainham Ln, Saint James, Dublin, Ireland",
    "ZipCode": null,
    "Type": "Pub",
    "OutDoorOnly": true,
    "Info": "guinness, dog, country, gem, school, craic, toasties, tourists, heart, gaol",
    "Link": "https://www.facebook.com/theoakd8",
    "State": null,
    "Latitude": 53.3416552,
    "Longitude": -6.3036807,
    "Phone": "+353 1 671 3967",
    "Rating": 4.7,
    "GooglePlaceId": "ChIJX4BA6kcMZ0gR51lIAv2z4hI",
    "Hours": {
      "Mon-Thu": "16:00 - 23:30",
      "Fri": "16:00 - 00:00",
      "Sat": "12:30 - 00:00",
      "Sun": "12:30 - 23:00"
    }
  },
  {
    "Name": "Willow and Wild Leixlip",
    "Address": "77 Oaklawn, Leixlip, Co. Kildare, W23 V821, Ireland",
    "ZipCode": "W23 V821",
    "Type": "Cafe",
    "OutDoorOnly": false,
    "Info": "pancakes, dog, toastie, light, scone, addition, enthusiastic, cappuccino",
    "Link": "https://willowandwild.ie/",
    "State": "Co. Kildare",
    "Latitude": 53.3661384,
    "Longitude": -6.5037942,
    "Phone": "+353 1 601 6750",
    "Rating": 4.7,
    "GooglePlaceId": "ChIJSZ5Hs99xZ0gRw32-2ph-dvU",
    "Hours": {
      "Mon": "Closed",
      "Tue-Fri": "09:00 - 16:00",
      "Sat-Sun": "10:00 - 16:00"
    }
  },
  {
    "Name": "The Phoenix Dog Park Private Hire",
    "Address": "Cuilin, Macetown, Tara, Co. Meath, Ireland",
    "ZipCode": null,
    "Type": "Dog park",
    "OutDoorOnly": false,
    "Info": "agility, space, river, lead, fenced, book, running, greyhound, recall, reactive",
    "Link": "http://www.thephoenixdogpark.com/",
    "State": "Co. Meath",
    "Latitude": 53.5807738,
    "Longitude": -6.4949519,
    "Phone": null,
    "Rating": 5,
    "GooglePlaceId": "ChIJcbRfvW1BZ0gRoMgOmoqb3cY",
    "Hours": {
      "Mon-Sun": "08:00 - 21:00"
    }
  },
  {
    "Name": "Diva coffee co",
    "Address": "Unit1, Naas Industrial Estate, Naas, Co. Kildare, W91 XA50, Ireland",
    "ZipCode": "W91 XA50",
    "Type": "Coffee shop",
    "OutDoorOnly": false,
    "Info": "atmosphere",
    "Link": null,
    "State": "Co. Kildare",
    "Latitude": 53.2292327,
    "Longitude": -6.6332402,
    "Phone": "+353 87 950 1593",
    "Rating": 5,
    "GooglePlaceId": "ChIJH0HJYlx5Z0gRnVQT503NYQs",
    "Hours": {
      "Mon-Fri": "07:30 - 15:00",
      "Sat": "08:30 - 13:30",
      "Sun": "Closed"
    },
    "Inside": true,
    "Outside": true
  },
  {
    "Name": "Conways Bar",
    "Address": "Castle St, Rathmelton, Co. Donegal, Ireland",
    "ZipCode": null,
    "Type": "Bar",
    "OutDoorOnly": false,
    "Info": "atmosphere, guinness, live music, craic, wednesday, dog, beer garden, bluegrass, musicians, well",
    "Link": null,
    "State": "Co. Donegal",
    "Latitude": 55.0383495,
    "Longitude": -7.6434492,
    "Phone": "+353 74 915 2546",
    "Rating": 4.7,
    "GooglePlaceId": "ChIJB8pt69btX0gR0rfHo6-zm94",
    "Hours": {
      "Mon-Tue": "Closed",
      "Wed-Thu": "16:00 - 23:30",
      "Fri-Sat": "14:00 - 01:00",
      "Sun": "14:00 - 23:00"
    }
  },
  {
    "Name": "Surge Coffee",
    "Address": "76 Sir John Rogerson's Quay, Grand Canal Dock, Dublin 2, D02 FX51, Ireland",
    "ZipCode": "D02 FX51",
    "Type": "Coffee shop",
    "OutDoorOnly": false,
    "Info": "pastries, wine, atmosphere, dog, area, flat white, espresso, charcuterie board, addition, laptop",
    "Link": "https://www.surgecoffee.ie/",
    "State": null,
    "Latitude": 53.3447757,
    "Longitude": -6.2342067,
    "Phone": "+353 1 532 6535",
    "Rating": 4.3,
    "GooglePlaceId": "ChIJhfkTt0cPZ0gRRWT9PU5mczE",
    "Hours": {
      "Mon-Wed": "07:30 - 17:00",
      "Thu-Fri": "07:30 - 22:30",
      "Sat-Sun": "07:30 - 17:00"
    },
    "Inside": true,
    "Outside": true
  },
  {
    "Name": "Wicklow Inspired Cafe",
    "Address": "Unit 1, The Mall Mews, S Quay, Corporation Lands, Wicklow, A67 FD80, Ireland",
    "ZipCode": "A67 FD80",
    "Type": "Coffee shop",
    "OutDoorOnly": false,
    "Info": "dog, atmosphere, board games, kids, gift, chai latte, affogato, harbour, fun, lovely",
    "Link": null,
    "State": null,
    "Latitude": 52.9803579,
    "Longitude": -6.0400626,
    "Phone": null,
    "Rating": 4.9,
    "GooglePlaceId": "ChIJAXYLsaWxZ0gRbDAoO25InEw",
    "Hours": {
      "Mon-Fri": "07:15 - 17:30",
      "Sat-Sun": "08:00 - 17:30"
    },
    "Inside": true,
    "Outside": true
  },
  {
    "Name": "The Dew Drop Inn",
    "Address": "Mainguard St, Galway, Ireland",
    "ZipCode": null,
    "Type": "Pub",
    "OutDoorOnly": false,
    "Info": "atmosphere, guinness, craft beers, sports, live music, comedy club, barman, watch, thursday, craic",
    "Link": "http://www.facebook.com/DewDropGalway/",
    "State": null,
    "Latitude": 53.2719399,
    "Longitude": -9.0542417,
    "Phone": "+353 91 561 070",
    "Rating": 4.5,
    "GooglePlaceId": "ChIJ_fFUxPqWW0gRKjXQ9a0lEbg",
    "Hours": {
      "Mon-Thu": "15:00 - 23:30",
      "Fri-Sat": "12:00 - 00:30",
      "Sun": "12:30 - 23:00"
    }
  },
  {
    "Name": "Ballincollig Dog Park",
    "Address": "Ballincollig Dog Park, Kilumney Road, Ballincollig, Co. Cork, Ireland",
    "ZipCode": null,
    "Type": "Dog park",
    "OutDoorOnly": false,
    "Info": "bags, water, staffy, lead, bowls, great spot, leash",
    "Link": "https://www.ballincolligdogpark.ie/",
    "State": "Co. Cork",
    "Latitude": 51.8760213,
    "Longitude": -8.6184442,
    "Phone": "+353 89 272 5562",
    "Rating": 4.8,
    "GooglePlaceId": "ChIJe0z2iWeTREgRuDD0DJSB-aM",
    "Hours": {
      "Mon-Sun": "06:00 - 21:00"
    }
  },
  {
    "Name": "Shake Dog Childers Road",
    "Address": "Limerick One Retail Park, Childers Rd, Singland, Limerick, V94 YX95, Ireland",
    "ZipCode": "V94 YX95",
    "Type": "Restaurant",
    "OutDoorOnly": false,
    "Info": "price, brunch, cooked, choice, atmosphere, milkshake, full irish, chicken tenders, ultra-processed food, club sandwich",
    "Link": "https://shakedog.ie/",
    "State": null,
    "Latitude": 52.6554725,
    "Longitude": -8.5972579,
    "Phone": "+353 61 544 443",
    "Rating": 4.4,
    "GooglePlaceId": "ChIJC423he5dW0gRCrozO1v5oxI",
    "Hours": {
      "Mon-Wed": "09:00 - 20:00",
      "Thu-Sat": "09:00 - 21:00",
      "Sun": "10:00 - 20:00"
    }
  },
  {
    "Name": "Grange Inn",
    "Address": "Grangecuffe, Cuffesgrange, Co. Kilkenny, R95 XD26, Ireland",
    "ZipCode": "R95 XD26",
    "Type": "Pub",
    "OutDoorOnly": false,
    "Info": "",
    "Link": null,
    "State": "Co. Kilkenny",
    "Latitude": 52.6008921,
    "Longitude": -7.3042922,
    "Phone": "+353 87 640 6408",
    "Rating": 4.4,
    "GooglePlaceId": "ChIJBdn499ExXUgRRAPWwAIxE1k",
    "Hours": {
      "Mon-Thu": "10:30 - 23:30",
      "Fri-Sat": "10:30 - 00:30",
      "Sun": "12:30 - 23:00"
    }
  },
  {
    "Name": "Southbank",
    "Address": "79/80 Grove Rd, Harold's Cross, Dublin 6, D06 HP29, Ireland",
    "ZipCode": "D06 HP29",
    "Type": "Cafe",
    "OutDoorOnly": false,
    "Info": "brunch, french toast, matcha, full irish, eggs benedict, bacon, lavender, poached eggs, avocado toast, food and service",
    "Link": "http://www.southbankcafe.ie/",
    "State": null,
    "Latitude": 53.3294331,
    "Longitude": -6.2751227,
    "Phone": "+353 1 558 1750",
    "Rating": 4.4,
    "GooglePlaceId": "ChIJ-3RRLyoNZ0gRQgfM0G2Cz1o",
    "Hours": {
      "Mon-Fri": "08:00 - 16:00",
      "Sat": "09:00 - 16:00",
      "Sun": "09:30 - 16:00"
    }
  },
  {
    "Name": "Shanganagh Park",
    "Address": "Shankill, Dublin, Ireland",
    "ZipCode": null,
    "Type": "Park",
    "OutDoorOnly": false,
    "Info": "walk, kids, beach, pitches, football, running, cemetery, bins, amenity, cricket",
    "Link": null,
    "State": null,
    "Latitude": 53.2262196,
    "Longitude": -6.1161822,
    "Phone": "+353 1 205 4341",
    "Rating": 4.6,
    "GooglePlaceId": "ChIJO0yQ3BqoZ0gR_TWLgcyulic",
    "Hours": {
      "Mon-Sun": "00:00 - 23:59"
    }
  },
  {
    "Name": "Shake Dog The Finer Diner Omniplex",
    "Address": "Quayside Shopping Centre, Wine St, Rathedmond, Sligo, F91 RXN1, Ireland",
    "ZipCode": "F91 RXN1",
    "Type": "Diner",
    "OutDoorOnly": false,
    "Info": "price, milkshakes, value, toilets, meal deal, hot dog, cinema, chicken burger, music, peri peri",
    "Link": "https://shakedogsligo.ie/delivery",
    "State": null,
    "Latitude": 54.2723974,
    "Longitude": -8.4777169,
    "Phone": "+353 71 914 0363",
    "Rating": 4.3,
    "GooglePlaceId": "ChIJ1TTjApvpXkgR_-DEtqSikgA",
    "Hours": {
      "Mon-Sat": "12:30 - 22:00",
      "Sun": "12:00 - 21:00"
    }
  },
  {
    "Name": "Fetch Coffee",
    "Address": "The Quay, Quay St, Burgagery-Lands West, Clonmel, Co. Tipperary, E91 WV40, Ireland",
    "ZipCode": "E91 WV40",
    "Type": "Coffee shop",
    "OutDoorOnly": false,
    "Info": "sausage rolls, flat white, dogs, sound, vegan, chat, morning, jambon, car park, oat",
    "Link": null,
    "State": "Co. Tipperary",
    "Latitude": 52.352172,
    "Longitude": -7.7023236,
    "Phone": null,
    "Rating": 4.9,
    "GooglePlaceId": "ChIJt1DGXysxQ0gRqn1g6nbjInI",
    "Hours": {
      "Mon-Wed": "Closed",
      "Thu-Fri": "07:30 - 16:00",
      "Sat": "08:30 - 16:00",
      "Sun": "08:30 - 14:00"
    }
  },
  {
    "Name": "Corkagh Park Dog Run",
    "Address": "Kingswood, Dublin, Ireland",
    "ZipCode": null,
    "Type": "Dog park",
    "OutDoorOnly": false,
    "Info": "tap, gate",
    "Link": null,
    "State": null,
    "Latitude": 53.3086126,
    "Longitude": -6.4130561,
    "Phone": null,
    "Rating": 4.1,
    "GooglePlaceId": "ChIJH8VqqWJzZ0gR69zXkMekYlw",
    "Hours": {}
  },
  {
    "Name": "Deja brew cafe",
    "Address": "St Judes GAA club, Templeogue, Dublin 6w, Co. Dublin, Ireland",
    "ZipCode": null,
    "Type": "Coffee shop",
    "OutDoorOnly": false,
    "Info": "sandwiches, area, atmosphere, cookies, gem, sausage roll, addition, hot chocolate, scones, acai bowls",
    "Link": "http://dejabrewdublin.ie/",
    "State": "Co. Dublin",
    "Latitude": 53.2965804,
    "Longitude": -6.3276409,
    "Phone": "+353 89 953 6651",
    "Rating": 4.9,
    "GooglePlaceId": "ChIJjz_oasQLZ0gRBAgCURgFUsI",
    "Hours": {
      "Mon-Fri": "08:00 - 20:00",
      "Sat-Sun": "08:30 - 16:30"
    }
  },
  {
    "Name": "Pizza Dog - Maynooth",
    "Address": "Main St, Maynooth, Co. Kildare, W23 N6F7, Ireland",
    "ZipCode": "W23 N6F7",
    "Type": "Restaurant",
    "OutDoorOnly": false,
    "Info": "delivery, hot dog, milkshakes, takeaway, chicken wings, customer service, phone, cold, students, ribs",
    "Link": "https://pizzadog.ie/restaurants/maynooth/",
    "State": "Co. Kildare",
    "Latitude": 53.3812868,
    "Longitude": -6.5923534,
    "Phone": "+353 1 531 0909",
    "Rating": 3.9,
    "GooglePlaceId": "ChIJERpEIh5wZ0gRwPmI5FsIbGk",
    "Hours": {
      "Mon-Sun": "11:00 - 02:00"
    }
  },
  {
    "Name": "Arklow Dog Park",
    "Address": "Seaview Ave, Ferrybank, Arklow, Co. Wicklow, Ireland",
    "ZipCode": null,
    "Type": "Dog park",
    "OutDoorOnly": false,
    "Info": "puppy",
    "Link": "https://m.facebook.com/groups/311312116665320/",
    "State": "Co. Wicklow",
    "Latitude": 52.8020716,
    "Longitude": -6.1407982,
    "Phone": null,
    "Rating": 4.5,
    "GooglePlaceId": "ChIJq4kiRuzHZ0gRDL-O8iowLe0",
    "Hours": {
      "Mon-Sun": "00:00 - 23:59"
    }
  },
  {
    "Name": "The Gander",
    "Address": "stop 4305, Sea Rd, Kilcoole, Co. Wicklow, Ireland",
    "ZipCode": null,
    "Type": "Restaurant",
    "OutDoorOnly": false,
    "Info": "coffee, breakfast bap, falafel wrap, price, ingredients, christmas, sandwich, chat, sourdough, spiced beef",
    "Link": "https://thegandertakeaway.com/",
    "State": "Co. Wicklow",
    "Latitude": 53.1061038,
    "Longitude": -6.0638124,
    "Phone": "+353 89 445 0190",
    "Rating": 4.7,
    "GooglePlaceId": "ChIJQwRzVIqvZ0gR2lviTFJvKOM",
    "Hours": {
      "Mon-Thu": "08:00 - 16:00",
      "Fri": "08:00 - 21:00",
      "Sat": "10:00 - 21:00",
      "Sun": "10:00 - 18:00"
    },
    "Inside": true,
    "Outside": true
  },
  {
    "Name": "Little Washer",
    "Address": "66 Glasnevin Hill, Glasnevin, Dublin 9, D09 R882, Ireland",
    "ZipCode": "D09 R882",
    "Type": "Italian restaurant",
    "OutDoorOnly": true,
    "Info": "sandwich, addition, tiramisu, wine, courgette flowers, pepperoni, lasagna, meatball",
    "Link": "https://thewasherwoman.ie/littlewasher.htm",
    "State": null,
    "Latitude": 53.3754989,
    "Longitude": -6.2699848,
    "Phone": "+353 1 857 1888",
    "Rating": 4.6,
    "GooglePlaceId": "ChIJ4ykYTQAPZ0gRTvi3MGdq5bE",
    "Hours": {
      "Mon-Tue": "Closed",
      "Wed-Fri": "08:00 - 21:00",
      "Sat": "09:00 - 21:00",
      "Sun": "09:00 - 20:00"
    },
    "Outside": true
  },
  {
    "Name": "East Village Coffee",
    "Address": "3 Monastery Road, Clondalkin, Dublin, D22 VOF8, Ireland",
    "ZipCode": "D22 VOF8",
    "Type": "Cafe",
    "OutDoorOnly": false,
    "Info": "atmosphere, brunch, bacon, french toast, poached eggs, eggs benedict, pastries, food and service, avocado toast, sausage roll",
    "Link": "http://www.eastvillagecoffee.ie/",
    "State": null,
    "Latitude": 53.3212887,
    "Longitude": -6.3926301,
    "Phone": "+353 1 464 2439",
    "Rating": 4.6,
    "GooglePlaceId": "ChIJhVFczEVzZ0gRXCnzh8fblBg",
    "Hours": {
      "Mon-Fri": "07:30 - 16:00",
      "Sat": "08:00 - 16:00",
      "Sun": "09:00 - 16:00"
    }
  },
  {
    "Name": "Guy’s",
    "Address": "Blackrock Market, Newtown Blackrock, Dublin, Ireland",
    "ZipCode": null,
    "Type": "Coffee shop",
    "OutDoorOnly": false,
    "Info": "matcha, dog",
    "Link": "https://www.guys-coffee.com/specialities",
    "State": null,
    "Latitude": 53.3011766,
    "Longitude": -6.1777748,
    "Phone": null,
    "Rating": 4.6,
    "GooglePlaceId": "ChIJW_-ETgAJZ0gRDG7zZ6boIEY",
    "Hours": {
      "Mon-Fri": "08:30 - 15:00",
      "Sat-Sun": "08:30 - 17:30"
    }
  },
  {
    "Name": "Table 45",
    "Address": "45 Hogan Pl, Dublin 2, D02 RF34, Ireland",
    "ZipCode": "D02 RF34",
    "Type": "Restaurant",
    "OutDoorOnly": false,
    "Info": "tapas, cocktails, empanadas, pisco sour, ceviche, patatas bravas, chilean, churros, chorizo, spinach croquettes",
    "Link": "http://www.table45.ie/bookings",
    "State": null,
    "Latitude": 53.3408629,
    "Longitude": -6.2447815,
    "Phone": "+353 1 515 4403",
    "Rating": 4.8,
    "GooglePlaceId": "ChIJ86efA4wPZ0gR0pOL4WmF3wc",
    "Hours": {
      "Mon": "Closed",
      "Tue-Thu": "12:00 - 23:00",
      "Fri-Sat": "12:00 - 23:30",
      "Sun": "12:00 - 23:00"
    },
    "Inside": true,
    "Outside": true
  },
  {
    "Name": "Chez le Fab Wine Bar & Café",
    "Address": "Arthurs Quay, Limerick, Ireland",
    "ZipCode": null,
    "Type": "Cafe",
    "OutDoorOnly": false,
    "Info": "dog, limerick, atmosphere, crepe, entertainment, chairs",
    "Link": "http://www.facebook.com/ChezLeFabCafeBar",
    "State": null,
    "Latitude": 52.6650992,
    "Longitude": -8.6267262,
    "Phone": "+353 83 822 9233",
    "Rating": 4.6,
    "GooglePlaceId": "ChIJJddZtmdcW0gRBOy4tfWVB10",
    "Hours": {}
  },
  {
    "Name": "Woofland Dog Park Portlaoise, County Laois, Ireland",
    "Address": "Old Road, Portlaoise, Co. Laois, Ireland",
    "ZipCode": null,
    "Type": "Dog park",
    "OutDoorOnly": false,
    "Info": "toys, lead, bags, book, safe space, lurcher, agility, rescue dog, staffy, enclosed space",
    "Link": "https://www.wooflanddogpark.com/",
    "State": "Co. Laois",
    "Latitude": 53.0765346,
    "Longitude": -7.1994882,
    "Phone": "+353 89 617 7394",
    "Rating": 4.9,
    "GooglePlaceId": "ChIJL8zqOFFzXUgRwGmDbdEIAMM",
    "Hours": {
      "Mon-Sun": "09:00 - 21:00"
    }
  },
  {
    "Name": "Little Paws cafe",
    "Address": "Derryvarogue, Donadea, Naas, Co. Kildare, Ireland",
    "ZipCode": null,
    "Type": "Coffee shop",
    "OutDoorOnly": false,
    "Info": "dog",
    "Link": null,
    "State": "Co. Kildare",
    "Latitude": 53.3443037,
    "Longitude": -6.7333244,
    "Phone": null,
    "Rating": 5,
    "GooglePlaceId": "ChIJ63ukcwB9Z0gRuXebpqudA2o",
    "Hours": {
      "Mon-Tue": "Closed",
      "Wed-Sun": "09:00 - 15:00"
    }
  },
  {
    "Name": "M.J. Hoban",
    "Address": "Octagon, Cahernamart, Westport, Co. Mayo, Ireland",
    "ZipCode": null,
    "Type": "Irish pub",
    "OutDoorOnly": true,
    "Info": "fish and chips, mussels, food and service, dining, chicken wings, seafood, portion sizes, main course, spicy, trip",
    "Link": "http://www.mjhobans.ie/",
    "State": "Co. Mayo",
    "Latitude": 53.7989382,
    "Longitude": -9.5245859,
    "Phone": "+353 98 50793",
    "Rating": 4.6,
    "GooglePlaceId": "ChIJI1TTp6ZkWUgR14mesN15_yY",
    "Hours": {
      "Mon": "12:00 - 23:30",
      "Tue": "16:00 - 23:30",
      "Wed": "Closed",
      "Thu": "16:00 - 23:30",
      "Fri": "15:00 - 00:30",
      "Sat": "12:00 - 00:30",
      "Sun": "12:00 - 23:30"
    },
    "Outside": true
  },
  {
    "Name": "SoCoffee",
    "Address": "32 Main St, St. Catherine's Park, Leixlip, Co. Kildare, W23 TR22, Ireland",
    "ZipCode": "W23 TR22",
    "Type": "Cafe",
    "OutDoorOnly": false,
    "Info": "atmosphere, ice cream, smile, gem, village, scones, mince pies, interior, cleanliness, chai latte",
    "Link": null,
    "State": "Co. Kildare",
    "Latitude": 53.3644044,
    "Longitude": -6.487954,
    "Phone": "+353 85 748 7204",
    "Rating": 4.8,
    "GooglePlaceId": "ChIJxRDI8WhzZ0gRYmIT9MDv0Qo",
    "Hours": {
      "Mon-Sat": "09:00 - 17:00",
      "Sun": "10:00 - 17:00"
    }
  },
  {
    "Name": "Dog Run - St. Catherine's Park",
    "Address": "St. Catherine's Park, Leixlip, Co. Dublin, Ireland",
    "ZipCode": null,
    "Type": "Park",
    "OutDoorOnly": false,
    "Info": "space, water, area, lead, walk, socialise, gate, benches",
    "Link": null,
    "State": "Co. Dublin",
    "Latitude": 53.366604,
    "Longitude": -6.471361,
    "Phone": null,
    "Rating": 4.7,
    "GooglePlaceId": "ChIJ-Qgx_T9yZ0gRyR6-66B1xCg",
    "Hours": {
      "Mon-Sun": "00:00 - 23:59"
    }
  },
  {
    "Name": "Dartry Park Waterfall",
    "Address": "1 Bóthar Bhaile an Mhuilinn, Rath Maonais, Baile Átha Cliath, Ireland",
    "ZipCode": null,
    "Type": "Park",
    "OutDoorOnly": false,
    "Info": "the sun, afternoon, dog",
    "Link": null,
    "State": null,
    "Latitude": 53.3082771,
    "Longitude": -6.257603,
    "Phone": null,
    "Rating": 4.5,
    "GooglePlaceId": "ChIJPzuCzkoJZ0gRNFggAOebX7Q",
    "Hours": {}
  },
  {
    "Name": "🌟Hassetts/Le Chéile🌟",
    "Address": "Barefield Or Gortlumman, Barefield, Co. Clare, V95 YX37, Ireland",
    "ZipCode": "V95 YX37",
    "Type": "Cafe",
    "OutDoorOnly": false,
    "Info": "parking, atmosphere, lunch, prices, salad, bar, full irish, fish cakes, club sandwich, motorway",
    "Link": "http://www.lecheilecafe.com/",
    "State": "Co. Clare",
    "Latitude": 52.8876847,
    "Longitude": -8.947351,
    "Phone": null,
    "Rating": 4.7,
    "GooglePlaceId": "ChIJfeHshdpzW0gRL68C2Ko5GpA",
    "Hours": {
      "Mon": "08:00 - 23:00",
      "Tue-Wed": "08:00 - 23:30",
      "Thu": "08:00 - 22:30",
      "Fri": "08:00 - 23:30",
      "Sat-Sun": "10:00 - 23:30"
    }
  },
  {
    "Name": "Greystones Dog Park",
    "Address": "Rathdown Lower, Greystones, Co. Wicklow, Ireland",
    "ZipCode": null,
    "Type": "Park",
    "OutDoorOnly": false,
    "Info": "dogs, benches",
    "Link": null,
    "State": "Co. Wicklow",
    "Latitude": 53.1568855,
    "Longitude": -6.0740695,
    "Phone": null,
    "Rating": 3.8,
    "GooglePlaceId": "ChIJI0zoAkypZ0gRS_VrawxZEl0",
    "Hours": {
      "Mon-Sun": "00:00 - 23:59"
    }
  },
  {
    "Name": "Serendipity",
    "Address": "Elsmore, Naas West, Naas, Co. Kildare, Ireland",
    "ZipCode": null,
    "Type": "Coffee shop",
    "OutDoorOnly": false,
    "Info": "pastries, atmosphere, sausage roll, wine, dog, price",
    "Link": null,
    "State": "Co. Kildare",
    "Latitude": 53.2096281,
    "Longitude": -6.6774867,
    "Phone": null,
    "Rating": 4.5,
    "GooglePlaceId": "ChIJ8xpf0eZ5Z0gRfLJzUXuB-HM",
    "Hours": {
      "Mon-Wed": "07:00 - 16:00",
      "Thu": "07:00 - 17:00",
      "Fri": "07:00 - 18:00",
      "Sat": "09:00 - 16:00",
      "Sun": "09:00 - 15:00"
    }
  },
  {
    "Name": "Grindstone Coffee",
    "Address": "50 Mayor Street Upper, North Wall, Dublin 1, D01 A2N6",
    "ZipCode": "D01 A2N6",
    "Hours": {
      "Mon-Fri": "07:30 - 15:00",
      "Sat": "09:00 - 15:00",
      "Sun": "09:00 - 15:00"
    },
    "Type": "Coffee",
    "OutDoorOnly": false,
    "Info": "",
    "Link": "https://www.brickyard.ie/pages/grindstone",
    "Latitude": 53.350284,
    "Longitude": -6.241618,
    "State": "Dublin 1"
  },
  {
    "Name": "Toca - Tapioca House",
    "Address": "49 Fleet St, Temple Bar, Dublin, D02 XW26, Ireland",
    "ZipCode": "D02 XW26",
    "Hours": {
      "Mon-Sun": "09:00 - 18:00"
    },
    "Type": "Restaurant",
    "Info": "Dogs allowed inside",
    "OutDoorOnly": false,
    "Link": "https://tocatapioca.com",
    "Latitude": 53.345775,
    "Longitude": -6.257488,
    "State": "Dublin 2"
  },
  {
    "Name": "BrewDog Outpost Dublin",
    "Address": "Three Locks Square, 4, Grand Canal Dock, Dublin 2, D02 E5R7",
    "ZipCode": "D02 E5R7",
    "Hours": {
      "Mon-Fri": "11:00 - 23:00",
      "Sat": "10:00 - 23:30",
      "Sun": "10:00 - 23:00"
    },
    "Type": "Restaurant",
    "Info": "Dogs allowed inside; Dog bowls of water upon request",
    "OutDoorOnly": false,
    "Link": "https://linktr.ee/brewdogoutpostdublin",
    "Latitude": 53.342997,
    "Longitude": -6.2378,
    "State": "Dublin 2"
  },
  {
    "Name": "Isabelle's",
    "Address": "13-14 Anne St S, Dublin, D02 HP70",
    "ZipCode": "D02 HP70",
    "Hours": {
      "Mon-Fri": "12:00 - 15:30, 17:00 - 21:00",
      "Sat": "10:00 - 15:30, 17:00 - 22:00",
      "Sun": "10:00 - 15:30, 17:00 - 21:00"
    },
    "Type": "Restaurant",
    "Info": "Terrace only",
    "OutDoorOnly": true,
    "Link": "https://isabelles.ie/",
    "Latitude": 53.343695,
    "Longitude": -6.259403,
    "State": "Dublin 2"
  },
  {
    "Name": "Street 66",
    "Address": "33-34 Parliament St, Temple Bar, Dublin 2",
    "ZipCode": "",
    "Hours": {
      "Mon-Thu": "15:00 - 23:30",
      "Fri": "15:00 - 02:30",
      "Sat": "13:00 - 02:30",
      "Sun": "13:00 - 23:30"
    },
    "Type": "Pub",
    "Info": "Dogs allowed inside; Dog bowls of water upon request; LGBTQIA+ friendly",
    "OutDoorOnly": false,
    "Link": "",
    "Latitude": 53.344519,
    "Longitude": -6.268525,
    "State": "Dublin 2"
  },
  {
    "Name": "Grindstone Coffee",
    "Address": "Bolands Quay, Barrow St, Dublin 4, D04 F6T8",
    "ZipCode": "D04 F6T8",
    "Hours": {
      "Mon-Fri": "07:30 - 15:00",
      "Sat": "09:00 - 15:00",
      "Sun": "09:00 - 15:00"
    },
    "Type": "Coffee",
    "Info": "",
    "OutDoorOnly": false,
    "Link": "https://www.brickyard.ie/pages/grindstone",
    "Latitude": 53.339444,
    "Longitude": -6.2375,
    "State": "Dublin 4"
  },
  {
    "Name": "Happy Out",
    "Address": "81 Morehampton Rd, Donnybrook, Dublin 4, D04 X8R5",
    "ZipCode": "D04 X8R5",
    "Hours": {
      "Mon-Fri": "07:30 - 16:00",
      "Sat": "08:00 - 16:00",
      "Sun": "09:00 - 16:00"
    },
    "Type": "Coffee",
    "Info": "",
    "OutDoorOnly": false,
    "Link": "https://happyout.ie/",
    "Latitude": 53.322508,
    "Longitude": -6.243124,
    "State": "Dublin 4"
  },
  {
    "Name": "Happy Out",
    "Address": "Bull Wall, Bull Island, Clontarf, Dublin",
    "ZipCode": "",
    "Hours": {
      "Summer": {
        "Mon-Sun": "09:00 - 17:00"
      },
      "Winter": {
        "Mon-Sun": "09:00 - 16:00"
      }
    },
    "Type": "Coffee",
    "Info": "Terrace only",
    "OutDoorOnly": true,
    "Link": "https://happyout.ie/",
    "Location": "Dublin 3",
    "Latitude": 53.367564,
    "Longitude": -6.143856
  },
  {
    "Name": "Doyles Corner",
    "Address": "160/161 Phibsborough Rd, Phibsborough, Dublin 7, D07 R26N",
    "ZipCode": "D07 R26N",
    "Hours": {
      "Mon-Wed": "11:00 - 15:30",
      "Thu": "12:30 - 23:30",
      "Fri-Sat": "12:30 - 00:30",
      "Sun": "12:30 - 23:00"
    },
    "Type": "Pub",
    "Info": "Dogs allowed inside; Dog bowl upon request",
    "OutDoorOnly": false,
    "Link": "https://www.instagram.com/doylescorner",
    "Latitude": 53.36424,
    "Longitude": -6.270524,
    "State": "Dublin 7"
  },
  {
    "Name": "Stay With Us",
    "Address": "324B North Circular Road, Phibsborough, Dublin, Ireland D07 NX86",
    "ZipCode": "D07 NX86",
    "Hours": {
      "Mon-Fri": "07:00 - 18:00",
      "Sat-Sun": "08:00 - 17:00"
    },
    "Type": "Cafe",
    "Info": "",
    "OutDoorOnly": false,
    "Link": "https://www.staywithus.ie/",
    "Latitude": 53.362152,
    "Longitude": -6.276404,
    "State": "Dublin 7"
  },
  {
    "Name": "Braza Food",
    "Address": "19 Clanbrassil Street Lower, Portobello, Dublin 8, D08 X798",
    "ZipCode": "D08 X798",
    "Hours": {
      "Tue-Fri": "17:00 - 23:00",
      "Sat": "12:00 - 23:00",
      "Sun": "12:00 - 21:45"
    },
    "Type": "Restaurant",
    "Info": "Hot dogs, burgers, Brazilian snacks",
    "OutDoorOnly": false,
    "Link": "https://brazafood.ie",
    "Latitude": 53.333645,
    "Longitude": -6.276176,
    "State": "Dublin 8"
  },
  {
    "Name": "The Fumbally",
    "Address": "Fumbally Lane, The Liberties, D08 HFF2",
    "ZipCode": "D08 HFF2",
    "Hours": {
      "Mon-Sun": "08:00 - 15:00"
    },
    "Type": "Restaurant",
    "Info": "Dogs allowed inside; Breakfast/Brunch/Lunch",
    "OutDoorOnly": false,
    "Link": "https://thefumbally.ie",
    "Latitude": 53.3391,
    "Longitude": -6.2773,
    "State": "Dublin 8"
  },
  {
    "Name": "The Cheeky Piglet",
    "Address": "Fumbally Lane, Dublin 8, D08 CPW3",
    "ZipCode": "D08 CPW3",
    "Hours": {
      "Mon-Fri": "08:30 - 16:00",
      "Sat-Sun": "09:00 - 16:00"
    },
    "Type": "Restaurant",
    "Info": "Dogs allowed inside; Large area for dogs to run",
    "OutDoorOnly": false,
    "Link": "https://thecheekypiglet.com/",
    "Latitude": 53.3389,
    "Longitude": -6.2776,
    "State": "Dublin 8"
  },
  {
    "Name": "Pye",
    "Address": "Main Street, Dundrum, D14 V9R3",
    "ZipCode": "D14 V9R3",
    "Hours": {
      "Mon-Thu": "15:00 - 23:30",
      "Fri": "13:00 - 00:30",
      "Sat": "10:45 - 00:30",
      "Sun": "12:00 - 23:00"
    },
    "Type": "Pub",
    "Info": "Dogs allowed inside; Dog vending machines; Kennel seating",
    "OutDoorOnly": false,
    "Link": "https://pye.ie/dog-friendly/",
    "Latitude": 53.29052,
    "Longitude": -6.24356,
    "State": "Dublin 14"
  },
  {
    "Name": "Coffee Works",
    "Address": "Unit 8, Saint Brigid's Shopping Centre, Blanchardstown, Dublin, D15 EKC7",
    "ZipCode": "D15 EKC7",
    "Hours": {
      "Mon-Fri": "07:30 - 17:00",
      "Sat-Sun": "08:00 - 16:00"
    },
    "Type": "Coffee",
    "Info": "",
    "OutDoorOnly": false,
    "Link": "",
    "Latitude": 53.3956,
    "Longitude": -6.3883,
    "State": "Dublin 15"
  },
  {
    "Name": "Grindstone Coffee",
    "Address": "Overend Ave, Dundrum, Dublin, D16 PK60",
    "ZipCode": "D16 PK60",
    "Hours": {
      "Mon-Fri": "07:30 - 18:00",
      "Sat-Sun": "09:00 - 18:00"
    },
    "Type": "Coffee",
    "Info": "",
    "OutDoorOnly": false,
    "Link": "https://www.brickyard.ie/pages/grindstone",
    "Latitude": 53.29435,
    "Longitude": -6.234781,
    "State": "Dublin 16"
  },
  {
    "Name": "Foxhunter",
    "Address": "Foxhunter, Ballydowd, Lucan, Co. Dublin, K78 P285",
    "ZipCode": "K78 P285",
    "Hours": {
      "Mon-Thu": "15:00 - 23:00",
      "Fri-Sat": "12:00 - 00:30",
      "Sun": "12:00 - 23:00"
    },
    "Type": "Pub",
    "Info": "Dogs allowed indoors",
    "OutDoorOnly": false,
    "Link": "",
    "Latitude": 53.3742,
    "Longitude": -6.4867,
    "State": "Co Dublin"
  },
  {
    "Name": "Coffee Works",
    "Address": "62 Main St, Townparks, Swords, Co. Dublin, K67 RX94",
    "ZipCode": "K67 RX94",
    "Hours": {
      "Mon-Fri": "07:30 - 17:00",
      "Sat-Sun": "08:00 - 16:00"
    },
    "Type": "Coffee",
    "Info": "Dogs allowed indoors",
    "OutDoorOnly": false,
    "Link": "",
    "Latitude": 53.4567,
    "Longitude": -6.2179,
    "State": "Co Dublin"
  }
]